[{"pais":"Argentina","ciudades":[{"ciudad":"Abra Pampa","latitud":-22.7167,"longitud":-65.7},{"ciudad":"Adrogue","latitud":-34.8,"longitud":-58.3833},{"ciudad":"Aldo Bonzi","latitud":-34.7083,"longitud":-58.5181},{"ciudad":"Allen","latitud":-38.9772,"longitud":-67.8272},{"ciudad":"Alta Gracia","latitud":-31.6667,"longitud":-64.4333},{"ciudad":"Alto Río Senguer","latitud":-45.0419,"longitud":-70.8234},{"ciudad":"Añatuya","latitud":-28.4667,"longitud":-62.8333},{"ciudad":"Aristóbulo del Valle","latitud":-27.0952,"longitud":-54.897},{"ciudad":"Armstrong","latitud":-32.7819,"longitud":-61.6019},{"ciudad":"Avellaneda","latitud":-34.6625,"longitud":-58.3678},{"ciudad":"Avellaneda","latitud":-29.1175,"longitud":-59.6583},{"ciudad":"Ayacucho","latitud":-37.1525,"longitud":-58.4882},{"ciudad":"Azul","latitud":-36.7833,"longitud":-59.85},{"ciudad":"Bahía Blanca","latitud":-38.7167,"longitud":-62.2667},{"ciudad":"Balcarce","latitud":-37.8464,"longitud":-58.2556},{"ciudad":"Banfield","latitud":-34.75,"longitud":-58.3833},{"ciudad":"Baradero","latitud":-33.8,"longitud":-59.5167},{"ciudad":"Belén","latitud":-27.6496,"longitud":-67.0333},{"ciudad":"Bell Ville","latitud":-32.6333,"longitud":-62.6833},{"ciudad":"Bella Vista","latitud":-34.5333,"longitud":-58.6667},{"ciudad":"Benito Juárez","latitud":-37.6833,"longitud":-59.8},{"ciudad":"Berazategui","latitud":-34.7679,"longitud":-58.2133},{"ciudad":"Berisso","latitud":-34.8667,"longitud":-57.8667},{"ciudad":"Bernal","latitud":-34.7,"longitud":-58.2833},{"ciudad":"Bialet Massé","latitud":-31.3214,"longitud":-64.4694},{"ciudad":"Bragado","latitud":-35.1167,"longitud":-60.5},{"ciudad":"Brandsen","latitud":-35.1667,"longitud":-58.2167},{"ciudad":"Buenos Aires","latitud":-34.5997,"longitud":-58.3819},{"ciudad":"Burzaco","latitud":-34.8167,"longitud":-58.3667},{"ciudad":"Cafayate","latitud":-26.07,"longitud":-65.98},{"ciudad":"Caleta Olivia","latitud":-46.4333,"longitud":-67.5333},{"ciudad":"Campana","latitud":-34.1667,"longitud":-58.9167},{"ciudad":"Cañada de Gómez","latitud":-32.8167,"longitud":-61.4},{"ciudad":"Capilla del Monte","latitud":-30.85,"longitud":-64.5167},{"ciudad":"Capitán Bermúdez","latitud":-32.8167,"longitud":-60.7167},{"ciudad":"Carcarañá","latitud":-32.85,"longitud":-61.15},{"ciudad":"Carhué","latitud":-37.1667,"longitud":-62.7333},{"ciudad":"Carmen de Areco","latitud":-34.3833,"longitud":-59.8167},{"ciudad":"Caseros","latitud":-34.6167,"longitud":-58.5333},{"ciudad":"Casilda","latitud":-33.0442,"longitud":-61.1681},{"ciudad":"Castelar","latitud":-34.65,"longitud":-58.65},{"ciudad":"Castelli","latitud":-25.95,"longitud":-60.6167},{"ciudad":"Catamarca","latitud":-28.4686,"longitud":-65.7792},{"ciudad":"Catriel","latitud":-37.8778,"longitud":-67.7917},{"ciudad":"Centenario","latitud":-38.8167,"longitud":-68.1333},{"ciudad":"Ceres","latitud":-29.8833,"longitud":-61.95},{"ciudad":"Cerrillos","latitud":-24.9,"longitud":-65.4833},{"ciudad":"Chacabuco","latitud":-34.65,"longitud":-60.49},{"ciudad":"Chajarí","latitud":-30.7667,"longitud":-57.9833},{"ciudad":"Chamical","latitud":-30.3592,"longitud":-66.3133},{"ciudad":"Charata","latitud":-27.2144,"longitud":-61.1881},{"ciudad":"Chascomús","latitud":-35.575,"longitud":-58.0089},{"ciudad":"Chepes","latitud":-31.35,"longitud":-66.6},{"ciudad":"Chilecito","latitud":-29.1667,"longitud":-67.5},{"ciudad":"Chivilcoy","latitud":-34.9,"longitud":-60.0167},{"ciudad":"Choele Choel","latitud":-39.2858,"longitud":-65.6542},{"ciudad":"Chos Malal","latitud":-37.3833,"longitud":-70.2667},{"ciudad":"Chumbicha","latitud":-28.8666,"longitud":-66.2333},{"ciudad":"Cinco Saltos","latitud":-38.8167,"longitud":-68.0667},{"ciudad":"Ciudad General Belgrano","latitud":-34.7261,"longitud":-58.5289},{"ciudad":"Colón","latitud":-32.2241,"longitud":-58.1419},{"ciudad":"Comallo","latitud":-41.0333,"longitud":-70.2667},{"ciudad":"Comandante Fontana","latitud":-25.3333,"longitud":-59.6833},{"ciudad":"Comandante Luis Piedra Buena","latitud":-49.983,"longitud":-68.91},{"ciudad":"Comodoro Rivadavia","latitud":-45.8667,"longitud":-67.5},{"ciudad":"Concepción del Uruguay","latitud":-32.4833,"longitud":-58.2333},{"ciudad":"Concordia","latitud":-31.3922,"longitud":-58.0169},{"ciudad":"Córdoba","latitud":-31.4167,"longitud":-64.1833},{"ciudad":"Coronda","latitud":-31.9667,"longitud":-60.9167},{"ciudad":"Coronel Dorrego","latitud":-38.7187,"longitud":-61.2873},{"ciudad":"Coronel Suárez","latitud":-37.4547,"longitud":-61.9334},{"ciudad":"Corral de Bustos","latitud":-33.2833,"longitud":-62.2},{"ciudad":"Corrientes","latitud":-27.4833,"longitud":-58.8167},{"ciudad":"Cruz del Eje","latitud":-30.7333,"longitud":-64.8},{"ciudad":"Cutral-Có","latitud":-38.9333,"longitud":-69.2333},{"ciudad":"Darregueira","latitud":-37.6996,"longitud":-63.1666},{"ciudad":"Deán Funes","latitud":-30.4333,"longitud":-64.35},{"ciudad":"Dock Sur","latitud":-34.6417,"longitud":-58.3478},{"ciudad":"Dolores","latitud":-36.3132,"longitud":-57.6792},{"ciudad":"Don Bosco","latitud":-34.7,"longitud":-58.2833},{"ciudad":"El Calafate","latitud":-50.3395,"longitud":-72.2649},{"ciudad":"El Maitén","latitud":-42.05,"longitud":-71.1667},{"ciudad":"El Talar de Pacheco","latitud":-34.4719,"longitud":-58.655},{"ciudad":"Eldorado","latitud":-26.4,"longitud":-54.6333},{"ciudad":"Embalse","latitud":-32.1833,"longitud":-64.4167},{"ciudad":"Esperanza","latitud":-31.4167,"longitud":-60.9333},{"ciudad":"Esquel","latitud":-42.9,"longitud":-71.3167},{"ciudad":"Esteban Echeverría","latitud":-34.8167,"longitud":-58.4667},{"ciudad":"Ezpeleta","latitud":-34.7517,"longitud":-58.2344},{"ciudad":"Federación","latitud":-30.9833,"longitud":-57.9167},{"ciudad":"Firmat","latitud":-33.45,"longitud":-61.4833},{"ciudad":"Florencio Varela","latitud":-34.8167,"longitud":-58.2833},{"ciudad":"Florencio Varela","latitud":-34.8167,"longitud":-58.3833},{"ciudad":"Formosa","latitud":-26.1847,"longitud":-58.1758},{"ciudad":"Fray Luis A. Beltrán","latitud":-32.7833,"longitud":-60.7333},{"ciudad":"Frías","latitud":-28.6496,"longitud":-65.15},{"ciudad":"Frontera","latitud":-31.4278,"longitud":-62.0619},{"ciudad":"Gastre","latitud":-42.2667,"longitud":-69.2167},{"ciudad":"General Conesa","latitud":-40.1,"longitud":-64.4333},{"ciudad":"General Deheza","latitud":-32.7564,"longitud":-63.7889},{"ciudad":"General Fernández Oro","latitud":-38.95,"longitud":-67.9167},{"ciudad":"General Juan Madariaga","latitud":-37.0167,"longitud":-57.1333},{"ciudad":"General Levalle","latitud":-34.0167,"longitud":-63.9167},{"ciudad":"General Martín Miguel de Güemes","latitud":-24.6667,"longitud":-65.05},{"ciudad":"General Pico","latitud":-35.6587,"longitud":-63.7577},{"ciudad":"General Roca","latitud":-39.0333,"longitud":-67.5833},{"ciudad":"Gobernador Gálvez","latitud":-33.0251,"longitud":-60.6337},{"ciudad":"Gobernador Gregores","latitud":-48.7509,"longitud":-70.2485},{"ciudad":"Godoy Cruz","latitud":-32.9167,"longitud":-68.8333},{"ciudad":"González Catán","latitud":-34.7708,"longitud":-58.6464},{"ciudad":"Goya","latitud":-29.1333,"longitud":-59.25},{"ciudad":"Granadero Baigorria","latitud":-32.85,"longitud":-60.7},{"ciudad":"Gualeguay","latitud":-33.15,"longitud":-59.3167},{"ciudad":"Gualeguaychú","latitud":-33.0078,"longitud":-58.5111},{"ciudad":"Haedo","latitud":-34.65,"longitud":-58.6},{"ciudad":"Helvecia","latitud":-31.1,"longitud":-60.0833},{"ciudad":"Humahuaca","latitud":-23.2054,"longitud":-65.3505},{"ciudad":"Ingeniero Guillermo N. Juárez","latitud":-23.9,"longitud":-61.85},{"ciudad":"Ingeniero Jacobacci","latitud":-41.3,"longitud":-69.5833},{"ciudad":"Ingeniero Luis A. Huergo","latitud":-39.0833,"longitud":-67.2333},{"ciudad":"Isidro Casanova","latitud":-34.7,"longitud":-58.5833},{"ciudad":"Ituzaingó","latitud":-34.6582,"longitud":-58.6672},{"ciudad":"Jesús María","latitud":-30.9817,"longitud":-64.0942},{"ciudad":"Jesús Nazareno","latitud":-32.9111,"longitud":-68.79},{"ciudad":"Joaquín V. González","latitud":-25.1171,"longitud":-64.1247},{"ciudad":"José C. Paz","latitud":-34.5167,"longitud":-58.7667},{"ciudad":"José María Ezeiza","latitud":-34.8333,"longitud":-58.5167},{"ciudad":"José Mármol","latitud":-34.7833,"longitud":-58.3667},{"ciudad":"Junín","latitud":-34.5939,"longitud":-60.9464},{"ciudad":"Junín de los Andes","latitud":-39.9167,"longitud":-71.0667},{"ciudad":"Justiniano Posse","latitud":-32.8833,"longitud":-62.6667},{"ciudad":"La Banda","latitud":-27.7333,"longitud":-64.25},{"ciudad":"La Calera","latitud":-31.3439,"longitud":-64.3353},{"ciudad":"La Carlota","latitud":-33.4179,"longitud":-63.2935},{"ciudad":"La Falda","latitud":-31.0833,"longitud":-64.5},{"ciudad":"La Paz","latitud":-33.4661,"longitud":-67.55},{"ciudad":"La Plata","latitud":-34.9333,"longitud":-57.95},{"ciudad":"La Quiaca","latitud":-22.1056,"longitud":-65.6},{"ciudad":"La Reja","latitud":-34.6394,"longitud":-58.8283},{"ciudad":"La Rioja","latitud":-29.4131,"longitud":-66.8558},{"ciudad":"Laboulaye","latitud":-34.1267,"longitud":-63.3911},{"ciudad":"Laguna Larga","latitud":-31.7767,"longitud":-63.8025},{"ciudad":"Laguna Paiva","latitud":-31.3163,"longitud":-60.6573},{"ciudad":"Lamarque","latitud":-39.4236,"longitud":-65.7},{"ciudad":"Lanús","latitud":-34.7,"longitud":-58.4},{"ciudad":"Las Heras","latitud":-32.825,"longitud":-68.8017},{"ciudad":"Las Heras","latitud":-46.55,"longitud":-68.95},{"ciudad":"Las Lajas","latitud":-38.5208,"longitud":-70.3667},{"ciudad":"Las Lomitas","latitud":-24.7072,"longitud":-60.5944},{"ciudad":"Las Parejas","latitud":-32.6833,"longitud":-61.5333},{"ciudad":"Leones","latitud":-32.6617,"longitud":-62.2967},{"ciudad":"Libertad","latitud":-34.6833,"longitud":-58.6833},{"ciudad":"Libertador General San Martín","latitud":-23.8,"longitud":-64.7833},{"ciudad":"Lincoln","latitud":-34.85,"longitud":-61.5167},{"ciudad":"Lobos","latitud":-35.1864,"longitud":-59.0961},{"ciudad":"Lomas de Zamora","latitud":-34.7667,"longitud":-58.4},{"ciudad":"Lomas del Mirador","latitud":-34.6667,"longitud":-58.5297},{"ciudad":"Longchamps","latitud":-34.8596,"longitud":-58.387},{"ciudad":"Los Blancos","latitud":-23.5996,"longitud":-62.6},{"ciudad":"Los Menucos","latitud":-40.8424,"longitud":-68.0896},{"ciudad":"Los Polvorines","latitud":-34.5,"longitud":-58.7},{"ciudad":"Luján","latitud":-34.5703,"longitud":-59.105},{"ciudad":"Macachín","latitud":-37.1377,"longitud":-63.662},{"ciudad":"Malargüe","latitud":-35.4745,"longitud":-69.5853},{"ciudad":"Malvinas Argentinas","latitud":-31.3697,"longitud":-64.0531},{"ciudad":"Mar de Ajó","latitud":-36.7162,"longitud":-56.6766},{"ciudad":"Mar del Plata","latitud":-38,"longitud":-57.55},{"ciudad":"Marcos Juárez","latitud":-32.7,"longitud":-62.1},{"ciudad":"Mendoza","latitud":-32.8833,"longitud":-68.8333},{"ciudad":"Mercedes","latitud":-34.65,"longitud":-59.4333},{"ciudad":"Mercedes","latitud":-29.2,"longitud":-58.0833},{"ciudad":"Merlo","latitud":-34.6653,"longitud":-58.7275},{"ciudad":"Mina Clavero","latitud":-31.7239,"longitud":-65.005},{"ciudad":"Monte Chingolo","latitud":-34.7333,"longitud":-58.35},{"ciudad":"Monte Cristo","latitud":-31.3431,"longitud":-63.9444},{"ciudad":"Monte Quemado","latitud":-25.8072,"longitud":-62.8278},{"ciudad":"Morón","latitud":-34.65,"longitud":-58.6167},{"ciudad":"Munro","latitud":-34.5333,"longitud":-58.5167},{"ciudad":"Necochea","latitud":-38.55,"longitud":-58.7333},{"ciudad":"Neuquén","latitud":-38.9573,"longitud":-68.0455},{"ciudad":"Nueve de Julio","latitud":-35.45,"longitud":-60.8833},{"ciudad":"Oberá","latitud":-27.4833,"longitud":-55.1333},{"ciudad":"Olavarría","latitud":-36.9,"longitud":-60.3333},{"ciudad":"Oliva","latitud":-32.0416,"longitud":-63.5698},{"ciudad":"Oncativo","latitud":-31.9134,"longitud":-63.6818},{"ciudad":"Pampa del Infierno","latitud":-26.5167,"longitud":-61.1667},{"ciudad":"Paraná","latitud":-31.7444,"longitud":-60.5175},{"ciudad":"Pedro Luro","latitud":-39.5,"longitud":-62.6833},{"ciudad":"Pergamino","latitud":-33.8836,"longitud":-60.5669},{"ciudad":"Perito Moreno","latitud":-46.59,"longitud":-70.9297},{"ciudad":"Perugorría","latitud":-29.3414,"longitud":-58.6106},{"ciudad":"Pico Truncado","latitud":-46.8,"longitud":-67.9667},{"ciudad":"Pilar","latitud":-34.4588,"longitud":-58.9142},{"ciudad":"Pinamar","latitud":-37.1,"longitud":-56.85},{"ciudad":"Plaza Huincul","latitud":-38.9338,"longitud":-69.1987},{"ciudad":"Plottier","latitud":-38.95,"longitud":-68.2333},{"ciudad":"Posadas","latitud":-27.3667,"longitud":-55.8969},{"ciudad":"Presidencia Roque Sáenz Peña","latitud":-26.7833,"longitud":-60.45},{"ciudad":"Puerto Deseado","latitud":-47.75,"longitud":-65.9167},{"ciudad":"Puerto Madryn","latitud":-42.773,"longitud":-65.0366},{"ciudad":"Puerto San Martín","latitud":-32.7167,"longitud":-60.7333},{"ciudad":"Punta Alta","latitud":-38.88,"longitud":-62.075},{"ciudad":"Quilmes","latitud":-34.7167,"longitud":-58.2667},{"ciudad":"Rada Tilly","latitud":-45.9257,"longitud":-67.5526},{"ciudad":"Rafael Calzada","latitud":-34.7833,"longitud":-58.3667},{"ciudad":"Rafael Castillo","latitud":-34.7167,"longitud":-58.6167},{"ciudad":"Rafaela","latitud":-31.2667,"longitud":-61.4833},{"ciudad":"Ramos Mejía","latitud":-34.65,"longitud":-58.5667},{"ciudad":"Rawson","latitud":-43.3,"longitud":-65.1},{"ciudad":"Reconquista","latitud":-29.1443,"longitud":-59.6438},{"ciudad":"Remedios de Escalada","latitud":-34.7167,"longitud":-58.4},{"ciudad":"Resistencia","latitud":-27.4514,"longitud":-58.9867},{"ciudad":"Rinconada","latitud":-22.4403,"longitud":-66.1672},{"ciudad":"Río Colorado","latitud":-38.9908,"longitud":-64.0958},{"ciudad":"Río Cuarto","latitud":-33.123,"longitud":-64.3478},{"ciudad":"Río Gallegos","latitud":-51.6333,"longitud":-69.2333},{"ciudad":"Río Grande","latitud":-53.7914,"longitud":-67.699},{"ciudad":"Río Mayo","latitud":-45.687,"longitud":-70.26},{"ciudad":"Río Primero","latitud":-31.3333,"longitud":-63.6167},{"ciudad":"Río Segundo","latitud":-31.6501,"longitud":-63.9116},{"ciudad":"Río Tercero","latitud":-32.1768,"longitud":-64.113},{"ciudad":"Rodeo","latitud":-30.2156,"longitud":-69.14},{"ciudad":"Rosario","latitud":-32.9575,"longitud":-60.6394},{"ciudad":"Rosario del Tala","latitud":-32.3008,"longitud":-59.1389},{"ciudad":"Rufino","latitud":-34.2683,"longitud":-62.7125},{"ciudad":"Salta","latitud":-24.7883,"longitud":-65.4106},{"ciudad":"San Antonio de los Cobres","latitud":-24.2256,"longitud":-66.3192},{"ciudad":"San Antonio Oeste","latitud":-40.7333,"longitud":-64.95},{"ciudad":"San Carlos de Bariloche","latitud":-41.15,"longitud":-71.3},{"ciudad":"San Cristóbal","latitud":-30.3105,"longitud":-61.2372},{"ciudad":"San Francisco","latitud":-31.4356,"longitud":-62.0714},{"ciudad":"San Francisco Solano","latitud":-34.7667,"longitud":-58.3167},{"ciudad":"San Isidro","latitud":-34.4667,"longitud":-58.5167},{"ciudad":"San Javier","latitud":-30.5833,"longitud":-59.95},{"ciudad":"San José de Feliciano","latitud":-30.3833,"longitud":-58.75},{"ciudad":"San Juan","latitud":-31.5375,"longitud":-68.5364},{"ciudad":"San Julián","latitud":-49.307,"longitud":-67.7298},{"ciudad":"San Justo","latitud":-34.6833,"longitud":-58.55},{"ciudad":"San Justo","latitud":-30.7833,"longitud":-60.5833},{"ciudad":"San Lorenzo","latitud":-28.12,"longitud":-58.77},{"ciudad":"San Luis","latitud":-33.2994,"longitud":-66.3392},{"ciudad":"San Martín","latitud":-33.0806,"longitud":-68.4706},{"ciudad":"San Martín de los Andes","latitud":-40.1667,"longitud":-71.35},{"ciudad":"San Miguel","latitud":-34.5333,"longitud":-58.7167},{"ciudad":"San Miguel de Tucumán","latitud":-26.8167,"longitud":-65.2167},{"ciudad":"San Nicolás de los Arroyos","latitud":-33.3333,"longitud":-60.2167},{"ciudad":"San Pedro","latitud":-24.2196,"longitud":-64.87},{"ciudad":"San Pedro","latitud":-33.6794,"longitud":-59.6669},{"ciudad":"San Rafael","latitud":-34.6175,"longitud":-68.3356},{"ciudad":"San Ramón de la Nueva Orán","latitud":-23.1361,"longitud":-64.3222},{"ciudad":"San Salvador","latitud":-31.6167,"longitud":-58.5},{"ciudad":"San Salvador de Jujuy","latitud":-24.1856,"longitud":-65.2994},{"ciudad":"Santa Elena","latitud":-30.95,"longitud":-59.8},{"ciudad":"Santa Fe","latitud":-31.6333,"longitud":-60.7},{"ciudad":"Santa María","latitud":-26.6833,"longitud":-66.0333},{"ciudad":"Santa María","latitud":-31.2611,"longitud":-64.4639},{"ciudad":"Santa Rosa","latitud":-36.6203,"longitud":-64.2906},{"ciudad":"Santa Rosa","latitud":-28.2631,"longitud":-58.1189},{"ciudad":"Santa Rosa de Río Primero","latitud":-31.15,"longitud":-63.3833},{"ciudad":"Santiago del Estero","latitud":-27.7844,"longitud":-64.2669},{"ciudad":"Santo Tomé","latitud":-31.6667,"longitud":-60.7667},{"ciudad":"Sarandí","latitud":-34.6833,"longitud":-58.3333},{"ciudad":"Sarmiento","latitud":-45.6,"longitud":-69.0833},{"ciudad":"Senillosa","latitud":-39,"longitud":-68.4167},{"ciudad":"Sierra Colorada","latitud":-40.5875,"longitud":-67.7583},{"ciudad":"Sierra Grande","latitud":-41.6061,"longitud":-65.3558},{"ciudad":"Sunchales","latitud":-30.9442,"longitud":-61.5614},{"ciudad":"Susques","latitud":-23.4006,"longitud":-66.3672},{"ciudad":"Tandil","latitud":-37.3167,"longitud":-59.1333},{"ciudad":"Tapiales","latitud":-34.7058,"longitud":-58.5047},{"ciudad":"Tartagal","latitud":-22.5,"longitud":-63.8333},{"ciudad":"Telsen","latitud":-42.3833,"longitud":-66.95},{"ciudad":"Temperley","latitud":-34.7667,"longitud":-58.3833},{"ciudad":"Tinogasta","latitud":-28.0667,"longitud":-67.5667},{"ciudad":"Trancas","latitud":-26.2308,"longitud":-65.2781},{"ciudad":"Trelew","latitud":-43.2533,"longitud":-65.3094},{"ciudad":"Tres Arroyos","latitud":-38.3667,"longitud":-60.2667},{"ciudad":"Trevelín","latitud":-43.0833,"longitud":-71.4667},{"ciudad":"Tunuyán","latitud":-33.5667,"longitud":-69.0167},{"ciudad":"Unquillo","latitud":-31.2333,"longitud":-64.3167},{"ciudad":"Ushuaia","latitud":-54.8072,"longitud":-68.3044},{"ciudad":"Uspallata","latitud":-32.5931,"longitud":-69.346},{"ciudad":"Veinticinco de Mayo","latitud":-35.4167,"longitud":-60.1667},{"ciudad":"Veinticinco de Mayo","latitud":-37.771,"longitud":-67.7173},{"ciudad":"Veintiocho de Noviembre","latitud":-51.584,"longitud":-72.2143},{"ciudad":"Venado Tuerto","latitud":-33.75,"longitud":-61.9667},{"ciudad":"Vera","latitud":-29.4667,"longitud":-60.2167},{"ciudad":"Vicente López","latitud":-34.5333,"longitud":-58.475},{"ciudad":"Victoria","latitud":-32.6167,"longitud":-60.1667},{"ciudad":"Victorica","latitud":-36.2167,"longitud":-65.434},{"ciudad":"Viedma","latitud":-40.8,"longitud":-63},{"ciudad":"Villa Adelina","latitud":-34.5175,"longitud":-58.5475},{"ciudad":"Villa Allende","latitud":-31.2944,"longitud":-64.2953},{"ciudad":"Villa Alsina","latitud":-34.6667,"longitud":-58.4167},{"ciudad":"Villa Ángela","latitud":-27.5833,"longitud":-60.7167},{"ciudad":"Villa Carlos Paz","latitud":-31.4,"longitud":-64.5167},{"ciudad":"Villa Celina","latitud":-34.7006,"longitud":-58.4825},{"ciudad":"Villa Constitución","latitud":-33.2333,"longitud":-60.3333},{"ciudad":"Villa Cura Brochero","latitud":-31.71,"longitud":-65.02},{"ciudad":"Villa del Rosario","latitud":-31.5833,"longitud":-63.5333},{"ciudad":"Villa Domínico","latitud":-34.6917,"longitud":-58.3333},{"ciudad":"Villa General Belgrano","latitud":-31.9667,"longitud":-64.5667},{"ciudad":"Villa Gesell","latitud":-37.2556,"longitud":-56.9681},{"ciudad":"Villa Huidobro","latitud":-34.8333,"longitud":-64.5833},{"ciudad":"Villa La Angostura","latitud":-40.7616,"longitud":-71.6448},{"ciudad":"Villa Luzuriaga","latitud":-34.6667,"longitud":-58.5833},{"ciudad":"Villa María","latitud":-32.4103,"longitud":-63.2314},{"ciudad":"Villa Mercedes","latitud":-33.6667,"longitud":-65.4667},{"ciudad":"Villa Paranacito","latitud":-33.7,"longitud":-58.6833},{"ciudad":"Villa Regina","latitud":-39.1,"longitud":-67.0667},{"ciudad":"Villa Rumipal","latitud":-32.1895,"longitud":-64.4792},{"ciudad":"Villa Sarmiento","latitud":-34.6333,"longitud":-58.5667},{"ciudad":"Villaguay","latitud":-31.85,"longitud":-59.0167},{"ciudad":"Villalonga","latitud":-39.8829,"longitud":-62.5833},{"ciudad":"Wilde","latitud":-34.7,"longitud":-58.3167},{"ciudad":"Yacimiento Río Turbio","latitud":-51.5333,"longitud":-72.3},{"ciudad":"Zapala","latitud":-38.9028,"longitud":-70.065},{"ciudad":"Zárate","latitud":-34.0833,"longitud":-59.0333}]},{"pais":"Bolivia","ciudades":[{"ciudad":"Achacachi","latitud":-16.0444,"longitud":-68.685},{"ciudad":"Aiquile","latitud":-18.1667,"longitud":-65.1667},{"ciudad":"Apolo","latitud":-14.7196,"longitud":-68.42},{"ciudad":"Ascensión","latitud":-15.6996,"longitud":-63.08},{"ciudad":"Baures","latitud":-13.5833,"longitud":-63.5833},{"ciudad":"Bermejo","latitud":-22.7322,"longitud":-64.3425},{"ciudad":"Betanzos","latitud":-19.56,"longitud":-65.45},{"ciudad":"Camargo","latitud":-20.6403,"longitud":-65.2103},{"ciudad":"Camiri","latitud":-20.1,"longitud":-63.5333},{"ciudad":"Camiri","latitud":-20.05,"longitud":-63.52},{"ciudad":"Capinota","latitud":-17.7147,"longitud":-66.2631},{"ciudad":"Challapata","latitud":-18.9,"longitud":-66.7667},{"ciudad":"Charagua","latitud":-19.7919,"longitud":-63.2006},{"ciudad":"Charaña","latitud":-17.5996,"longitud":-69.4666},{"ciudad":"Chulumani","latitud":-16.4102,"longitud":-67.5255},{"ciudad":"Cliza","latitud":-17.5919,"longitud":-65.9342},{"ciudad":"Cobija","latitud":-11.0183,"longitud":-68.7537},{"ciudad":"Cochabamba","latitud":-17.3935,"longitud":-66.157},{"ciudad":"Comarapa","latitud":-17.9136,"longitud":-64.5297},{"ciudad":"Corocoro","latitud":-17.1667,"longitud":-68.4167},{"ciudad":"Coroico","latitud":-16.1833,"longitud":-67.7333},{"ciudad":"Cuevo","latitud":-20.4547,"longitud":-63.5189},{"ciudad":"Entre Ríos","latitud":-21.53,"longitud":-64.19},{"ciudad":"Guayaramerín","latitud":-10.8267,"longitud":-65.3567},{"ciudad":"La Paz","latitud":-16.4942,"longitud":-68.1475},{"ciudad":"Llallagua","latitud":-18.4231,"longitud":-66.5856},{"ciudad":"Llica","latitud":-19.8496,"longitud":-68.25},{"ciudad":"Magdalena","latitud":-13.2606,"longitud":-64.0528},{"ciudad":"Mapiri","latitud":-15.3097,"longitud":-68.2161},{"ciudad":"Montero","latitud":-17.3333,"longitud":-63.3833},{"ciudad":"Oruro","latitud":-17.9667,"longitud":-67.1167},{"ciudad":"Oruro","latitud":-17.98,"longitud":-67.13},{"ciudad":"Padilla","latitud":-19.3075,"longitud":-64.3022},{"ciudad":"Patacamaya","latitud":-17.2333,"longitud":-67.9167},{"ciudad":"Piso Firme","latitud":-13.683,"longitud":-61.8666},{"ciudad":"Portachuelo","latitud":-17.3547,"longitud":-63.3947},{"ciudad":"Potosí","latitud":-19.5833,"longitud":-65.75},{"ciudad":"Puerto Acosta","latitud":-15.4996,"longitud":-69.1667},{"ciudad":"Puerto Heath","latitud":-12.52,"longitud":-68.6186},{"ciudad":"Puerto Quijarro","latitud":-17.7796,"longitud":-57.77},{"ciudad":"Puerto Suárez","latitud":-18.9633,"longitud":-57.7978},{"ciudad":"Puerto Villarroel","latitud":-16.8667,"longitud":-64.7831},{"ciudad":"Punata","latitud":-17.5469,"longitud":-65.8367},{"ciudad":"Quillacollo","latitud":-17.3975,"longitud":-66.2817},{"ciudad":"Quime","latitud":-16.98,"longitud":-67.22},{"ciudad":"Reyes","latitud":-14.2958,"longitud":-67.3353},{"ciudad":"Riberalta","latitud":-10.983,"longitud":-66.1},{"ciudad":"Roboré","latitud":-18.3295,"longitud":-59.76},{"ciudad":"Rurrenabaque","latitud":-14.4422,"longitud":-67.5283},{"ciudad":"Sabaya","latitud":-19.1,"longitud":-68.4333},{"ciudad":"Sacaba","latitud":-17.4042,"longitud":-66.0408},{"ciudad":"Samaipata","latitud":-18.1794,"longitud":-63.8756},{"ciudad":"San Borja","latitud":-14.8583,"longitud":-66.7475},{"ciudad":"San Carlos","latitud":-17.4044,"longitud":-63.7325},{"ciudad":"San Ignacio de Velasco","latitud":-16.3667,"longitud":-60.95},{"ciudad":"San Javier","latitud":-16.2896,"longitud":-62.5},{"ciudad":"San José de Chiquitos","latitud":-17.85,"longitud":-60.75},{"ciudad":"San Lorenzo","latitud":-21.4799,"longitud":-64.77},{"ciudad":"San Matías","latitud":-16.36,"longitud":-58.42},{"ciudad":"San Rafael","latitud":-16.7795,"longitud":-60.68},{"ciudad":"San Ramón","latitud":-13.2672,"longitud":-64.6172},{"ciudad":"Santa Ana de Yacuma","latitud":-13.7444,"longitud":-65.4269},{"ciudad":"Santa Cruz","latitud":-17.7892,"longitud":-63.1975},{"ciudad":"Sicasica","latitud":-17.3333,"longitud":-67.7333},{"ciudad":"Sorata","latitud":-15.7736,"longitud":-68.6486},{"ciudad":"Sucre","latitud":-19.0431,"longitud":-65.2592},{"ciudad":"Tarabuco","latitud":-19.1825,"longitud":-64.915},{"ciudad":"Tarija","latitud":-21.5317,"longitud":-64.7311},{"ciudad":"Tiquipaya","latitud":-17.3381,"longitud":-66.2189},{"ciudad":"Torotoro","latitud":-18.1339,"longitud":-65.7628},{"ciudad":"Trinidad","latitud":-14.8333,"longitud":-64.9},{"ciudad":"Tupiza","latitud":-21.4423,"longitud":-65.719},{"ciudad":"Uncia","latitud":-18.4682,"longitud":-66.5648},{"ciudad":"Uyuni","latitud":-20.4627,"longitud":-66.824},{"ciudad":"Vallegrande","latitud":-18.4894,"longitud":-64.1083},{"ciudad":"Viacha","latitud":-16.6333,"longitud":-68.2833},{"ciudad":"Villa Martín Colchak","latitud":-20.7666,"longitud":-67.7833},{"ciudad":"Villa Tunari","latitud":-16.9725,"longitud":-65.42},{"ciudad":"Villa Yapacaní","latitud":-17.4028,"longitud":-63.885},{"ciudad":"Villamontes","latitud":-21.2647,"longitud":-63.4586},{"ciudad":"Villazón","latitud":-22.091,"longitud":-65.596},{"ciudad":"Vinto","latitud":-17.3972,"longitud":-66.3136},{"ciudad":"Warnes","latitud":-17.5103,"longitud":-63.1647}]},{"pais":"Chile","ciudades":[{"ciudad":"Alerce","latitud":-41.3969,"longitud":-72.9037},{"ciudad":"Alto del Carmen","latitud":-28.9336,"longitud":-70.4623},{"ciudad":"Alto Hospicio","latitud":-20.25,"longitud":-70.1167},{"ciudad":"Ancud","latitud":-41.8682,"longitud":-73.8287},{"ciudad":"Andacollo","latitud":-30.2167,"longitud":-71.0833},{"ciudad":"Angol","latitud":-37.7988,"longitud":-72.7086},{"ciudad":"Antofagasta","latitud":-23.6464,"longitud":-70.398},{"ciudad":"Arauco","latitud":-37.2463,"longitud":-73.3175},{"ciudad":"Arica","latitud":-18.4784,"longitud":-70.3211},{"ciudad":"Balsadero Río Verde","latitud":-52.65,"longitud":-71.4666},{"ciudad":"Batuco","latitud":-33.2299,"longitud":-70.8085},{"ciudad":"Buin","latitud":-33.7333,"longitud":-70.75},{"ciudad":"Cabildo","latitud":-32.4267,"longitud":-71.0664},{"ciudad":"Calama","latitud":-22.4624,"longitud":-68.9272},{"ciudad":"Calbuco","latitud":-41.7712,"longitud":-73.1275},{"ciudad":"Caldera","latitud":-27.0667,"longitud":-70.8167},{"ciudad":"Cañete","latitud":-37.8,"longitud":-73.3833},{"ciudad":"Carahue","latitud":-38.7,"longitud":-73.1667},{"ciudad":"Cartagena","latitud":-33.55,"longitud":-71.6},{"ciudad":"Casablanca","latitud":-33.3167,"longitud":-71.4167},{"ciudad":"Castro","latitud":-42.4824,"longitud":-73.7643},{"ciudad":"Cauquenes","latitud":-35.9671,"longitud":-72.3154},{"ciudad":"Chaitén","latitud":-42.9193,"longitud":-72.7088},{"ciudad":"Chañaral","latitud":-29.0772,"longitud":-71.4906},{"ciudad":"Chépica","latitud":-34.7333,"longitud":-71.2833},{"ciudad":"Chicureo Abajo","latitud":-33.2808,"longitud":-70.6366},{"ciudad":"Chiguayante","latitud":-36.9167,"longitud":-73.0167},{"ciudad":"Chillán","latitud":-36.6067,"longitud":-72.1033},{"ciudad":"Chillán Viejo","latitud":-36.6229,"longitud":-72.1317},{"ciudad":"Chonchi","latitud":-42.6238,"longitud":-73.7725},{"ciudad":"Chuquicamata","latitud":-22.32,"longitud":-68.93},{"ciudad":"Cochrane","latitud":-47.2539,"longitud":-72.5732},{"ciudad":"Colina","latitud":-33.2,"longitud":-70.6833},{"ciudad":"Collipulli","latitud":-37.95,"longitud":-72.4333},{"ciudad":"Combarbalá","latitud":-31.1667,"longitud":-71.05},{"ciudad":"Concepción","latitud":-36.82,"longitud":-73.0445},{"ciudad":"Concón","latitud":-32.9167,"longitud":-71.5167},{"ciudad":"Constitución","latitud":-35.3333,"longitud":-72.4167},{"ciudad":"Contulmo","latitud":-38,"longitud":-73.2333},{"ciudad":"Copiapó","latitud":-27.3665,"longitud":-70.3323},{"ciudad":"Coquimbo","latitud":-29.9532,"longitud":-71.338},{"ciudad":"Coronel","latitud":-37.0167,"longitud":-73.1333},{"ciudad":"Coyhaique","latitud":-45.5712,"longitud":-72.0685},{"ciudad":"Curacautín","latitud":-38.4333,"longitud":-71.8833},{"ciudad":"Curanilahue","latitud":-37.4667,"longitud":-73.35},{"ciudad":"Curarrehue","latitud":-39.35,"longitud":-71.5833},{"ciudad":"Curicó","latitud":-34.98,"longitud":-71.24},{"ciudad":"Cuya","latitud":-19.1597,"longitud":-70.1794},{"ciudad":"Dalcahue","latitud":-42.3796,"longitud":-73.6473},{"ciudad":"Diego de Almagro","latitud":-26.3667,"longitud":-70.05},{"ciudad":"El Palqui","latitud":-30.7679,"longitud":-70.9433},{"ciudad":"El Tabo","latitud":-33.45,"longitud":-71.6667},{"ciudad":"Espejo","latitud":-33.5333,"longitud":-70.7167},{"ciudad":"Fresia","latitud":-41.1531,"longitud":-73.4223},{"ciudad":"Frutillar","latitud":-41.1258,"longitud":-73.0605},{"ciudad":"Galvarino","latitud":-38.4,"longitud":-72.7833},{"ciudad":"Hanga Roa","latitud":-27.1492,"longitud":-109.4323},{"ciudad":"Hijuelas","latitud":-32.8,"longitud":-71.1667},{"ciudad":"Hualqui","latitud":-36.9759,"longitud":-72.9384},{"ciudad":"Huasco","latitud":-28.45,"longitud":-71.2167},{"ciudad":"Illapel","latitud":-31.6327,"longitud":-71.1683},{"ciudad":"Iquique","latitud":-20.2141,"longitud":-70.1524},{"ciudad":"Isla de Maipo","latitud":-33.75,"longitud":-70.9},{"ciudad":"La Calera","latitud":-32.7833,"longitud":-71.2167},{"ciudad":"La Cruz","latitud":-32.8167,"longitud":-71.2333},{"ciudad":"La Florida","latitud":-33.55,"longitud":-70.5667},{"ciudad":"La Granja","latitud":-33.5431,"longitud":-70.6319},{"ciudad":"La Ligua","latitud":-32.4494,"longitud":-71.2317},{"ciudad":"La Punta","latitud":-34.0125,"longitud":-70.6501},{"ciudad":"La Reina","latitud":-33.45,"longitud":-70.55},{"ciudad":"La Serena","latitud":-29.9027,"longitud":-71.252},{"ciudad":"La Unión","latitud":-40.2952,"longitud":-73.0822},{"ciudad":"Lago Ranco","latitud":-40.3167,"longitud":-72.5},{"ciudad":"Lagunas","latitud":-20.9829,"longitud":-69.6833},{"ciudad":"Lampa","latitud":-33.2864,"longitud":-70.8729},{"ciudad":"Lanco","latitud":-39.4523,"longitud":-72.7755},{"ciudad":"Laraquete","latitud":-37.1677,"longitud":-73.1859},{"ciudad":"Las Cabras","latitud":-34.3,"longitud":-71.3167},{"ciudad":"Las Condes","latitud":-33.4167,"longitud":-70.5833},{"ciudad":"Lebu","latitud":-37.6103,"longitud":-73.6561},{"ciudad":"Linares","latitud":-35.8454,"longitud":-71.5979},{"ciudad":"Lo Barnechea","latitud":-33.35,"longitud":-70.5167},{"ciudad":"Lo Miranda","latitud":-34.1957,"longitud":-70.8891},{"ciudad":"Loncoche","latitud":-39.3669,"longitud":-72.6308},{"ciudad":"Lonquimay","latitud":-38.4333,"longitud":-71.2333},{"ciudad":"Los Andes","latitud":-32.8337,"longitud":-70.5982},{"ciudad":"Los Ángeles","latitud":-37.4707,"longitud":-72.3517},{"ciudad":"Los Lagos","latitud":-39.85,"longitud":-72.8333},{"ciudad":"Los Vilos","latitud":-31.9,"longitud":-71.5167},{"ciudad":"Lota","latitud":-37.0944,"longitud":-73.1563},{"ciudad":"Maipú","latitud":-33.5167,"longitud":-70.7667},{"ciudad":"María Pinto","latitud":-33.5333,"longitud":-71.1333},{"ciudad":"Mejillones","latitud":-23.1,"longitud":-70.45},{"ciudad":"Monte Águila","latitud":-37.0879,"longitud":-72.4385},{"ciudad":"Nueva Imperial","latitud":-38.7333,"longitud":-72.95},{"ciudad":"Oficina María Elena","latitud":-22.35,"longitud":-69.6667},{"ciudad":"Osorno","latitud":-40.5739,"longitud":-73.1336},{"ciudad":"Ovalle","latitud":-30.6031,"longitud":-71.203},{"ciudad":"Palmilla","latitud":-34.6,"longitud":-71.3667},{"ciudad":"Panguipulli","latitud":-39.6419,"longitud":-72.3334},{"ciudad":"Papudo","latitud":-32.5167,"longitud":-71.45},{"ciudad":"Parral","latitud":-36.15,"longitud":-71.8333},{"ciudad":"Pelluhue","latitud":-35.8333,"longitud":-72.6333},{"ciudad":"Penco","latitud":-36.7333,"longitud":-72.9833},{"ciudad":"Peñaflor","latitud":-33.6167,"longitud":-70.9167},{"ciudad":"Peumo","latitud":-34.4,"longitud":-71.1667},{"ciudad":"Pichidegua","latitud":-34.35,"longitud":-71.3},{"ciudad":"Pichilemu","latitud":-34.3851,"longitud":-72.0049},{"ciudad":"Pinto","latitud":-36.7,"longitud":-71.9},{"ciudad":"Placilla de Peñuelas","latitud":-33.1156,"longitud":-71.5678},{"ciudad":"Porvenir","latitud":-53.2956,"longitud":-70.3687},{"ciudad":"Pozo Almonte","latitud":-20.2597,"longitud":-69.7862},{"ciudad":"Puchuncaví","latitud":-32.7261,"longitud":-71.4151},{"ciudad":"Pucón","latitud":-39.2667,"longitud":-71.9667},{"ciudad":"Puente Alto","latitud":-33.6167,"longitud":-70.5833},{"ciudad":"Puerto Aysén","latitud":-45.4068,"longitud":-72.6977},{"ciudad":"Puerto Montt","latitud":-41.4718,"longitud":-72.9396},{"ciudad":"Puerto Natales","latitud":-51.7263,"longitud":-72.5062},{"ciudad":"Puerto Octay","latitud":-40.9667,"longitud":-72.9},{"ciudad":"Puerto Varas","latitud":-41.3178,"longitud":-72.9827},{"ciudad":"Puerto Williams","latitud":-54.9341,"longitud":-67.6109},{"ciudad":"Punitaqui","latitud":-30.9,"longitud":-71.2667},{"ciudad":"Punta Arenas","latitud":-53.1627,"longitud":-70.9081},{"ciudad":"Purén","latitud":-38.0121,"longitud":-73.0504},{"ciudad":"Purranque","latitud":-40.9167,"longitud":-73.1667},{"ciudad":"Quellón","latitud":-43.1201,"longitud":-73.6203},{"ciudad":"Quillota","latitud":-32.8799,"longitud":-71.2474},{"ciudad":"Quilpué","latitud":-33.0498,"longitud":-71.4415},{"ciudad":"Quinchao","latitud":-42.5333,"longitud":-73.4167},{"ciudad":"Quintero","latitud":-32.7833,"longitud":-71.5333},{"ciudad":"Quirihue","latitud":-36.2833,"longitud":-72.5333},{"ciudad":"Rancagua","latitud":-34.1654,"longitud":-70.7398},{"ciudad":"Río Bueno","latitud":-40.3337,"longitud":-72.9568},{"ciudad":"Salamanca","latitud":-31.7667,"longitud":-70.9667},{"ciudad":"San Antonio","latitud":-33.5809,"longitud":-71.6132},{"ciudad":"San Bernardo","latitud":-33.6,"longitud":-70.7167},{"ciudad":"San Felipe","latitud":-32.7507,"longitud":-70.7251},{"ciudad":"San Fernando","latitud":-34.5839,"longitud":-70.9891},{"ciudad":"San Francisco de Mostazal","latitud":-33.9799,"longitud":-70.7122},{"ciudad":"San Javier","latitud":-35.5924,"longitud":-71.7353},{"ciudad":"San Joaquín","latitud":-33.5,"longitud":-70.6167},{"ciudad":"San José de Maipo","latitud":-33.6333,"longitud":-70.3667},{"ciudad":"San Pedro","latitud":-33.9,"longitud":-71.4667},{"ciudad":"San Pedro de Atacama","latitud":-22.9108,"longitud":-68.2001},{"ciudad":"Santa Bárbara","latitud":-37.6667,"longitud":-72.0167},{"ciudad":"Santiago","latitud":-33.45,"longitud":-70.6667},{"ciudad":"Talagante","latitud":-33.6667,"longitud":-70.9333},{"ciudad":"Talca","latitud":-35.4266,"longitud":-71.6661},{"ciudad":"Talcahuano","latitud":-36.7145,"longitud":-73.1141},{"ciudad":"Taltal","latitud":-25.4,"longitud":-70.47},{"ciudad":"Temuco","latitud":-38.7399,"longitud":-72.5901},{"ciudad":"Tierra Amarilla","latitud":-27.4667,"longitud":-70.2667},{"ciudad":"Toconao","latitud":-23.1829,"longitud":-68.0166},{"ciudad":"Tocopilla","latitud":-22.0941,"longitud":-70.201},{"ciudad":"Toltén","latitud":-39.2166,"longitud":-73.2123},{"ciudad":"Tomé","latitud":-36.6171,"longitud":-72.9575},{"ciudad":"Valdivia","latitud":-39.8142,"longitud":-73.2459},{"ciudad":"Vallenar","latitud":-28.57,"longitud":-70.76},{"ciudad":"Valparaíso","latitud":-33.0458,"longitud":-71.6197},{"ciudad":"Ventanas","latitud":-32.7419,"longitud":-71.4839},{"ciudad":"Victoria","latitud":-38.2167,"longitud":-72.3333},{"ciudad":"Vicuña","latitud":-30.0167,"longitud":-70.7},{"ciudad":"Villa Alemana","latitud":-33.0428,"longitud":-71.3744},{"ciudad":"Villa O’Higgins","latitud":-48.4679,"longitud":-72.56},{"ciudad":"Villarrica","latitud":-39.2667,"longitud":-72.2167},{"ciudad":"Viña del Mar","latitud":-33.0245,"longitud":-71.5518},{"ciudad":"Yungay","latitud":-37.1194,"longitud":-72.0189}]},{"pais":"Colombia","ciudades":[{"ciudad":"Tasco","latitud":5.9092,"longitud":-72.7814},{"ciudad":"Acacías","latitud":3.9889,"longitud":-73.7647},{"ciudad":"Acevedo","latitud":1.8047,"longitud":-75.8897},{"ciudad":"Achí","latitud":8.5692,"longitud":-74.5561},{"ciudad":"Agua de Dios","latitud":4.3781,"longitud":-74.6683},{"ciudad":"Aguachica","latitud":8.3067,"longitud":-73.6153},{"ciudad":"Aguadas","latitud":5.6092,"longitud":-75.4564},{"ciudad":"Aguazul","latitud":5.1689,"longitud":-72.5467},{"ciudad":"Agustín Codazzi","latitud":10.0367,"longitud":-73.2369},{"ciudad":"Aipe","latitud":3.2219,"longitud":-75.2375},{"ciudad":"Albán","latitud":4.8783,"longitud":-74.4383},{"ciudad":"Alcalá","latitud":4.6736,"longitud":-75.7825},{"ciudad":"Algeciras","latitud":2.5219,"longitud":-75.3144},{"ciudad":"Almaguer","latitud":1.9131,"longitud":-76.8561},{"ciudad":"Altos del Rosario","latitud":8.7914,"longitud":-74.1636},{"ciudad":"Alvarado","latitud":4.5672,"longitud":-74.9533},{"ciudad":"Amagá","latitud":6.0383,"longitud":-75.7028},{"ciudad":"Amalfi","latitud":6.9092,"longitud":-75.0767},{"ciudad":"Ambalema","latitud":4.7817,"longitud":-74.7639},{"ciudad":"Andes","latitud":5.6556,"longitud":-75.8803},{"ciudad":"Anolaima","latitud":4.7633,"longitud":-74.4647},{"ciudad":"Anorí","latitud":7.0736,"longitud":-75.1469},{"ciudad":"Aquitania","latitud":5.5194,"longitud":-72.8836},{"ciudad":"Aracataca","latitud":10.5911,"longitud":-74.185},{"ciudad":"Aratoca","latitud":6.6956,"longitud":-73.0175},{"ciudad":"Arauca","latitud":7.0903,"longitud":-70.7617},{"ciudad":"Arauquita","latitud":7.0261,"longitud":-71.4272},{"ciudad":"Arboletes","latitud":8.8511,"longitud":-76.4272},{"ciudad":"Arcabuco","latitud":5.7544,"longitud":-73.4375},{"ciudad":"Argelia","latitud":2.2558,"longitud":-77.2492},{"ciudad":"Arjona","latitud":10.255,"longitud":-75.3447},{"ciudad":"Armenia","latitud":4.5389,"longitud":-75.6725},{"ciudad":"Ataco","latitud":3.5897,"longitud":-75.3822},{"ciudad":"Ayapel","latitud":8.3125,"longitud":-75.145},{"ciudad":"Balboa","latitud":2.0406,"longitud":-77.2164},{"ciudad":"Baranoa","latitud":10.7956,"longitud":-74.9194},{"ciudad":"Barbosa","latitud":6.4375,"longitud":-75.3306},{"ciudad":"Barbosa","latitud":5.9331,"longitud":-73.6147},{"ciudad":"Barrancabermeja","latitud":7.0675,"longitud":-73.8472},{"ciudad":"Barranquilla","latitud":10.9639,"longitud":-74.7964},{"ciudad":"Belalcázar","latitud":2.6469,"longitud":-75.9717},{"ciudad":"Belén de Umbría","latitud":5.2006,"longitud":-75.8689},{"ciudad":"Bello","latitud":6.3319,"longitud":-75.5581},{"ciudad":"Betulia","latitud":6.1122,"longitud":-75.9839},{"ciudad":"Boavita","latitud":6.3308,"longitud":-72.5842},{"ciudad":"Bocas de Satinga","latitud":2.3469,"longitud":-78.3256},{"ciudad":"Bogotá","latitud":4.6126,"longitud":-74.0705},{"ciudad":"Bojacá","latitud":4.7336,"longitud":-74.3422},{"ciudad":"Bosconia","latitud":9.9761,"longitud":-73.8903},{"ciudad":"Bucaramanga","latitud":7.1186,"longitud":-73.1161},{"ciudad":"Buenaventura","latitud":3.8772,"longitud":-77.0267},{"ciudad":"Buenavista","latitud":8.2233,"longitud":-75.4817},{"ciudad":"Buesaco","latitud":1.3847,"longitud":-77.1564},{"ciudad":"Bugalagrande","latitud":4.2075,"longitud":-76.1575},{"ciudad":"Cáceres","latitud":7.5794,"longitud":-75.3503},{"ciudad":"Caicedonia","latitud":4.3347,"longitud":-75.8281},{"ciudad":"Caimito","latitud":8.7894,"longitud":-75.1161},{"ciudad":"Cajibío","latitud":2.6233,"longitud":-76.5731},{"ciudad":"Cajicá","latitud":4.9167,"longitud":-74.025},{"ciudad":"Caldas","latitud":6.0886,"longitud":-75.6361},{"ciudad":"Caldono","latitud":2.7969,"longitud":-76.4828},{"ciudad":"Cali","latitud":3.44,"longitud":-76.5197},{"ciudad":"Campo de la Cruz","latitud":10.3778,"longitud":-74.8814},{"ciudad":"Campoalegre","latitud":2.6867,"longitud":-75.3256},{"ciudad":"Canalete","latitud":8.79,"longitud":-76.2411},{"ciudad":"Candelaria","latitud":10.4592,"longitud":-74.8806},{"ciudad":"Caramanta","latitud":5.5467,"longitud":-75.6442},{"ciudad":"Carepa","latitud":7.7581,"longitud":-76.6553},{"ciudad":"Carmen de Viboral","latitud":6.0819,"longitud":-75.3342},{"ciudad":"Cartagena","latitud":10.4236,"longitud":-75.5253},{"ciudad":"Cartagena del Chairá","latitud":1.3361,"longitud":-74.8467},{"ciudad":"Cartago","latitud":4.75,"longitud":-75.91},{"ciudad":"Cereté","latitud":8.8867,"longitud":-75.7911},{"ciudad":"Chaparral","latitud":3.7236,"longitud":-75.4847},{"ciudad":"Charalá","latitud":6.2875,"longitud":-73.1467},{"ciudad":"Chía","latitud":4.8633,"longitud":-74.0528},{"ciudad":"Chigorodó","latitud":7.6697,"longitud":-76.6814},{"ciudad":"Chimichagua","latitud":9.2578,"longitud":-73.8133},{"ciudad":"Chinú","latitud":9.1097,"longitud":-75.3981},{"ciudad":"Chiquinquirá","latitud":5.6175,"longitud":-73.8164},{"ciudad":"Chíquiza","latitud":5.61,"longitud":-73.4889},{"ciudad":"Chita","latitud":6.1878,"longitud":-72.4725},{"ciudad":"Chitaraque","latitud":6.0283,"longitud":-73.4469},{"ciudad":"Chivolo","latitud":10.0264,"longitud":-74.6214},{"ciudad":"Chocontá","latitud":5.1467,"longitud":-73.6825},{"ciudad":"Ciénaga","latitud":11.0104,"longitud":-74.25},{"ciudad":"Ciénaga de Oro","latitud":8.875,"longitud":-75.6211},{"ciudad":"Cimitarra","latitud":6.3133,"longitud":-73.95},{"ciudad":"Circasia","latitud":4.6192,"longitud":-75.6347},{"ciudad":"Cisneros","latitud":6.5383,"longitud":-75.0886},{"ciudad":"Ciudad Bolívar","latitud":5.8494,"longitud":-76.0203},{"ciudad":"Cogua","latitud":5.0619,"longitud":-73.9794},{"ciudad":"Colosó","latitud":9.4942,"longitud":-75.3525},{"ciudad":"Concordia","latitud":6.0456,"longitud":-75.9075},{"ciudad":"Condoto","latitud":5.0917,"longitud":-76.65},{"ciudad":"Copacabana","latitud":6.3486,"longitud":-75.5103},{"ciudad":"Córdoba","latitud":0.8533,"longitud":-77.5178},{"ciudad":"Córdoba","latitud":9.5,"longitud":-74.9167},{"ciudad":"Córdoba","latitud":4.3911,"longitud":-75.6878},{"ciudad":"Corinto","latitud":3.1739,"longitud":-76.2594},{"ciudad":"Coromoro","latitud":6.295,"longitud":-73.0406},{"ciudad":"Corozal","latitud":9.3169,"longitud":-75.2933},{"ciudad":"Coveñas","latitud":9.4014,"longitud":-75.68},{"ciudad":"Coyaima","latitud":3.7975,"longitud":-75.1939},{"ciudad":"Cubará","latitud":7.0008,"longitud":-72.1081},{"ciudad":"Cúcuta","latitud":7.9075,"longitud":-72.5047},{"ciudad":"Cumaribo","latitud":4.4461,"longitud":-69.7956},{"ciudad":"Cumbal","latitud":0.9078,"longitud":-77.7908},{"ciudad":"Curití","latitud":6.6044,"longitud":-73.0681},{"ciudad":"Curumaní","latitud":9.1997,"longitud":-73.5425},{"ciudad":"Dabeiba","latitud":7.0014,"longitud":-76.2611},{"ciudad":"Dagua","latitud":3.6575,"longitud":-76.6917},{"ciudad":"Dibulla","latitud":11.2725,"longitud":-73.3089},{"ciudad":"Donmatías","latitud":6.4858,"longitud":-75.3953},{"ciudad":"Dosquebradas","latitud":4.8361,"longitud":-75.6761},{"ciudad":"Duitama","latitud":5.8219,"longitud":-73.0297},{"ciudad":"Ebéjico","latitud":6.3264,"longitud":-75.7661},{"ciudad":"El Águila","latitud":4.9081,"longitud":-76.0422},{"ciudad":"El Bagre","latitud":7.6047,"longitud":-74.8086},{"ciudad":"El Banco","latitud":9.0008,"longitud":-73.9744},{"ciudad":"El Bordo","latitud":2.1142,"longitud":-76.9831},{"ciudad":"El Carmen de Atrato","latitud":5.8983,"longitud":-76.1431},{"ciudad":"El Carmen de Bolívar","latitud":9.7167,"longitud":-75.1167},{"ciudad":"El Charco","latitud":2.4775,"longitud":-78.1111},{"ciudad":"El Cocuy","latitud":6.4094,"longitud":-72.4444},{"ciudad":"El Colegio","latitud":4.5808,"longitud":-74.4425},{"ciudad":"El Difícil","latitud":9.8469,"longitud":-74.2367},{"ciudad":"El Doncello","latitud":1.68,"longitud":-75.285},{"ciudad":"El Paso","latitud":9.6622,"longitud":-73.7519},{"ciudad":"El Paujíl","latitud":1.5694,"longitud":-75.3264},{"ciudad":"El Piñón","latitud":10.4039,"longitud":-74.8231},{"ciudad":"El Playón","latitud":7.4703,"longitud":-73.2033},{"ciudad":"El Retén","latitud":10.6106,"longitud":-74.2683},{"ciudad":"El Retorno","latitud":2.3306,"longitud":-72.6278},{"ciudad":"El Rosal","latitud":4.8519,"longitud":-74.2628},{"ciudad":"El Tarra","latitud":8.5756,"longitud":-73.0944},{"ciudad":"El Zulia","latitud":7.9325,"longitud":-72.6025},{"ciudad":"Envigado","latitud":6.1719,"longitud":-75.5803},{"ciudad":"Espinal","latitud":4.1486,"longitud":-74.8819},{"ciudad":"Facatativá","latitud":4.8147,"longitud":-74.3553},{"ciudad":"Filandia","latitud":4.6733,"longitud":-75.6583},{"ciudad":"Flandes","latitud":4.2844,"longitud":-74.8142},{"ciudad":"Florencia","latitud":1.6142,"longitud":-75.6117},{"ciudad":"Florián","latitud":5.8028,"longitud":-73.9714},{"ciudad":"Florida","latitud":3.3217,"longitud":-76.2347},{"ciudad":"Floridablanca","latitud":7.0697,"longitud":-73.0978},{"ciudad":"Fonseca","latitud":10.8858,"longitud":-72.8481},{"ciudad":"Fortul","latitud":6.7931,"longitud":-71.7714},{"ciudad":"Fredonia","latitud":5.9267,"longitud":-75.6739},{"ciudad":"Fresno","latitud":5.1536,"longitud":-75.0369},{"ciudad":"Fundación","latitud":10.5172,"longitud":-74.1922},{"ciudad":"Funza","latitud":4.7175,"longitud":-74.2094},{"ciudad":"Fusagasugá","latitud":4.3372,"longitud":-74.3644},{"ciudad":"Galeras","latitud":9.1586,"longitud":-75.0489},{"ciudad":"Garzón","latitud":2.1961,"longitud":-75.6292},{"ciudad":"Gigante","latitud":2.3867,"longitud":-75.5461},{"ciudad":"Ginebra","latitud":3.7244,"longitud":-76.2672},{"ciudad":"Girardot","latitud":4.3036,"longitud":-74.8039},{"ciudad":"Girardota","latitud":6.3769,"longitud":-75.4461},{"ciudad":"Girón","latitud":7.0731,"longitud":-73.1681},{"ciudad":"Granada","latitud":6.1442,"longitud":-75.1853},{"ciudad":"Granada","latitud":4.5186,"longitud":-74.3514},{"ciudad":"Guacarí","latitud":3.7647,"longitud":-76.3322},{"ciudad":"Guachavés","latitud":1.2219,"longitud":-77.6772},{"ciudad":"Guadalajara de Buga","latitud":3.9036,"longitud":-76.2986},{"ciudad":"Guadalupe","latitud":2.025,"longitud":-75.7564},{"ciudad":"Guaduas","latitud":5.0694,"longitud":-74.5981},{"ciudad":"Guamal","latitud":9.1442,"longitud":-74.2236},{"ciudad":"Guamo","latitud":4.0281,"longitud":-74.97},{"ciudad":"Guapí","latitud":2.5604,"longitud":-77.86},{"ciudad":"Guaranda","latitud":8.4672,"longitud":-74.5367},{"ciudad":"Guarne","latitud":6.2792,"longitud":-75.4419},{"ciudad":"Guasca","latitud":4.8658,"longitud":-73.8772},{"ciudad":"Guatapé","latitud":6.2325,"longitud":-75.1586},{"ciudad":"Guatavita","latitud":4.9344,"longitud":-73.8344},{"ciudad":"Guayabal","latitud":5.0306,"longitud":-74.8844},{"ciudad":"Güicán","latitud":6.4625,"longitud":-72.4119},{"ciudad":"Hatillo de Loba","latitud":8.9556,"longitud":-74.0769},{"ciudad":"Hatonuevo","latitud":11.0672,"longitud":-72.7631},{"ciudad":"Heliconia","latitud":6.2106,"longitud":-75.73},{"ciudad":"Honda","latitud":5.2069,"longitud":-74.7367},{"ciudad":"Ibagué","latitud":4.4378,"longitud":-75.2006},{"ciudad":"Iles","latitud":0.9706,"longitud":-77.5208},{"ciudad":"Inírida","latitud":3.8708,"longitud":-67.9211},{"ciudad":"Inzá","latitud":2.5503,"longitud":-76.0636},{"ciudad":"Ipiales","latitud":0.8289,"longitud":-77.6406},{"ciudad":"Isnos","latitud":1.9289,"longitud":-76.2158},{"ciudad":"Istmina","latitud":5.1633,"longitud":-76.6867},{"ciudad":"Itagüí","latitud":6.1726,"longitud":-75.6096},{"ciudad":"Jamundí","latitud":3.2608,"longitud":-76.5394},{"ciudad":"Jardín","latitud":5.5983,"longitud":-75.8197},{"ciudad":"Juan de Acosta","latitud":10.8286,"longitud":-75.035},{"ciudad":"Junín","latitud":4.7903,"longitud":-73.6633},{"ciudad":"Juradó","latitud":7.1114,"longitud":-77.7714},{"ciudad":"La Belleza","latitud":5.8575,"longitud":-73.9656},{"ciudad":"La Calera","latitud":4.7197,"longitud":-73.97},{"ciudad":"La Dorada","latitud":5.4538,"longitud":-74.6647},{"ciudad":"La Dorada","latitud":0.3436,"longitud":-76.9108},{"ciudad":"La Jagua de Ibirico","latitud":9.5611,"longitud":-73.3364},{"ciudad":"La Macarena","latitud":2.1828,"longitud":-73.7847},{"ciudad":"La Montañita","latitud":1.4792,"longitud":-75.4361},{"ciudad":"La Primavera","latitud":5.4906,"longitud":-70.4092},{"ciudad":"La Unión","latitud":4.5331,"longitud":-76.1006},{"ciudad":"La Unión","latitud":1.6053,"longitud":-77.1297},{"ciudad":"La Unión","latitud":5.9728,"longitud":-75.3611},{"ciudad":"La Unión","latitud":8.8572,"longitud":-75.2767},{"ciudad":"La Vega","latitud":2.0008,"longitud":-76.7778},{"ciudad":"La Virginia","latitud":4.8967,"longitud":-75.8839},{"ciudad":"Labranzagrande","latitud":5.5633,"longitud":-72.5775},{"ciudad":"Landázuri","latitud":6.2181,"longitud":-73.8114},{"ciudad":"Lenguazaque","latitud":5.3069,"longitud":-73.7117},{"ciudad":"Leticia","latitud":-4.215,"longitud":-69.9411},{"ciudad":"Líbano","latitud":4.9206,"longitud":-75.0611},{"ciudad":"López","latitud":2.8464,"longitud":-77.2472},{"ciudad":"Lorica","latitud":9.2419,"longitud":-75.816},{"ciudad":"Los Córdobas","latitud":8.8953,"longitud":-76.3547},{"ciudad":"Los Patios","latitud":7.8342,"longitud":-72.505},{"ciudad":"Los Santos","latitud":6.7561,"longitud":-73.1022},{"ciudad":"Luruaco","latitud":10.6083,"longitud":-75.1417},{"ciudad":"Madrid","latitud":4.7306,"longitud":-74.2639},{"ciudad":"Magangué","latitud":9.2467,"longitud":-74.7594},{"ciudad":"Maicao","latitud":11.3778,"longitud":-72.2414},{"ciudad":"Majagual","latitud":8.5408,"longitud":-74.6297},{"ciudad":"Manatí","latitud":10.4481,"longitud":-74.9592},{"ciudad":"Manaure","latitud":11.775,"longitud":-72.4444},{"ciudad":"Manizales","latitud":5.0661,"longitud":-75.4847},{"ciudad":"Manzanares","latitud":5.2519,"longitud":-75.1569},{"ciudad":"Margarita","latitud":9.1531,"longitud":-74.2881},{"ciudad":"María la Baja","latitud":9.9811,"longitud":-75.2986},{"ciudad":"Marinilla","latitud":6.1744,"longitud":-75.3389},{"ciudad":"Maripí","latitud":5.5489,"longitud":-74.0067},{"ciudad":"Marsella","latitud":4.9367,"longitud":-75.7392},{"ciudad":"Medellín","latitud":6.2447,"longitud":-75.5748},{"ciudad":"Medina","latitud":4.5092,"longitud":-73.3494},{"ciudad":"Melgar","latitud":4.2039,"longitud":-74.6428},{"ciudad":"Miranda","latitud":3.2503,"longitud":-76.2286},{"ciudad":"Mitú","latitud":1.2503,"longitud":-70.235},{"ciudad":"Mocoa","latitud":1.1492,"longitud":-76.6464},{"ciudad":"Mogotes","latitud":6.4764,"longitud":-72.9703},{"ciudad":"Moniquirá","latitud":5.8744,"longitud":-73.5717},{"ciudad":"Montecristo","latitud":8.2958,"longitud":-74.4728},{"ciudad":"Montelíbano","latitud":7.9711,"longitud":-75.4181},{"ciudad":"Montenegro","latitud":4.5653,"longitud":-75.7511},{"ciudad":"Montería","latitud":8.76,"longitud":-75.8856},{"ciudad":"Moñitos","latitud":9.2461,"longitud":-76.1286},{"ciudad":"Morales","latitud":2.7603,"longitud":-76.6339},{"ciudad":"Mosquera","latitud":4.7078,"longitud":-74.2328},{"ciudad":"Motavita","latitud":5.5772,"longitud":-73.3672},{"ciudad":"Mutatá","latitud":7.2433,"longitud":-76.4358},{"ciudad":"Muzo","latitud":5.5297,"longitud":-74.1044},{"ciudad":"Natagaima","latitud":3.6231,"longitud":-75.0936},{"ciudad":"Nechí","latitud":8.0958,"longitud":-74.775},{"ciudad":"Necoclí","latitud":8.4258,"longitud":-76.7839},{"ciudad":"Neira","latitud":5.1664,"longitud":-75.5189},{"ciudad":"Neiva","latitud":2.9275,"longitud":-75.2875},{"ciudad":"Norosí","latitud":8.5261,"longitud":-74.0378},{"ciudad":"Nueva Granada","latitud":9.8011,"longitud":-74.3917},{"ciudad":"Nuquí","latitud":5.7069,"longitud":-77.2703},{"ciudad":"Obando","latitud":4.5761,"longitud":-75.9731},{"ciudad":"Ocaña","latitud":8.2461,"longitud":-73.3553},{"ciudad":"Oiba","latitud":6.2639,"longitud":-73.2992},{"ciudad":"Orito","latitud":0.6661,"longitud":-76.8708},{"ciudad":"Orocué","latitud":4.7897,"longitud":-71.3392},{"ciudad":"Ovejas","latitud":9.5258,"longitud":-75.2272},{"ciudad":"Pailitas","latitud":8.9597,"longitud":-73.625},{"ciudad":"Paipa","latitud":5.78,"longitud":-73.1175},{"ciudad":"Palermo","latitud":2.8883,"longitud":-75.4339},{"ciudad":"Palmar de Varela","latitud":10.7389,"longitud":-74.7547},{"ciudad":"Pamplona","latitud":7.3761,"longitud":-72.6483},{"ciudad":"Paratebueno","latitud":4.3753,"longitud":-73.2131},{"ciudad":"Pasto","latitud":1.2136,"longitud":-77.2811},{"ciudad":"Paz de Ariporo","latitud":5.8811,"longitud":-71.8917},{"ciudad":"Pedraza","latitud":10.1886,"longitud":-74.9156},{"ciudad":"Pelaya","latitud":8.6892,"longitud":-73.6653},{"ciudad":"Pensilvania","latitud":5.384,"longitud":-75.1612},{"ciudad":"Pereira","latitud":4.8143,"longitud":-75.6946},{"ciudad":"Pesca","latitud":5.5589,"longitud":-73.0503},{"ciudad":"Pie de Pató","latitud":5.5153,"longitud":-76.9747},{"ciudad":"Piedecuesta","latitud":6.9886,"longitud":-73.0503},{"ciudad":"Pinillos","latitud":8.915,"longitud":-74.4619},{"ciudad":"Pitalito","latitud":1.8539,"longitud":-76.0514},{"ciudad":"Pivijay","latitud":10.4608,"longitud":-74.6153},{"ciudad":"Planadas","latitud":3.1964,"longitud":-75.6444},{"ciudad":"Planeta Rica","latitud":8.4089,"longitud":-75.5819},{"ciudad":"Plato","latitud":9.7925,"longitud":-74.7825},{"ciudad":"Polonuevo","latitud":10.7772,"longitud":-74.8528},{"ciudad":"Ponedera","latitud":10.6419,"longitud":-74.7531},{"ciudad":"Popayán","latitud":2.4411,"longitud":-76.6061},{"ciudad":"Pradera","latitud":3.4189,"longitud":-76.2439},{"ciudad":"Pueblo Bello","latitud":10.4164,"longitud":-73.5867},{"ciudad":"Pueblo Nuevo","latitud":8.505,"longitud":-75.5075},{"ciudad":"Puebloviejo","latitud":10.9942,"longitud":-74.2833},{"ciudad":"Puente Nacional","latitud":5.8772,"longitud":-73.6786},{"ciudad":"Puerto Asís","latitud":0.5006,"longitud":-76.4989},{"ciudad":"Puerto Berrío","latitud":6.4906,"longitud":-74.4047},{"ciudad":"Puerto Boyacá","latitud":5.9761,"longitud":-74.5875},{"ciudad":"Puerto Carreño","latitud":6.1889,"longitud":-67.4858},{"ciudad":"Puerto Colombia","latitud":10.9922,"longitud":-74.9528},{"ciudad":"Puerto Concordia","latitud":2.6233,"longitud":-72.7592},{"ciudad":"Puerto Escondido","latitud":9.0192,"longitud":-76.2614},{"ciudad":"Puerto Guzmán","latitud":0.9636,"longitud":-76.4086},{"ciudad":"Puerto Libertador","latitud":7.8881,"longitud":-75.6717},{"ciudad":"Puerto López","latitud":4.0897,"longitud":-72.9619},{"ciudad":"Puerto Nariño","latitud":-3.7703,"longitud":-70.3831},{"ciudad":"Puerto Parra","latitud":6.6514,"longitud":-74.0569},{"ciudad":"Puerto Rico","latitud":1.9075,"longitud":-75.1583},{"ciudad":"Puerto Tejada","latitud":3.23,"longitud":-76.4175},{"ciudad":"Puerto Triunfo","latitud":5.8728,"longitud":-74.6397},{"ciudad":"Puerto Wilches","latitud":7.3483,"longitud":-73.8983},{"ciudad":"Purificación","latitud":3.8567,"longitud":-74.9325},{"ciudad":"Quibdó","latitud":5.6923,"longitud":-76.6582},{"ciudad":"Quimbaya","latitud":4.6239,"longitud":-75.7631},{"ciudad":"Quinchía","latitud":5.3394,"longitud":-75.7294},{"ciudad":"Regidor","latitud":8.6664,"longitud":-73.8222},{"ciudad":"Remedios","latitud":7.0275,"longitud":-74.6939},{"ciudad":"Repelón","latitud":10.4944,"longitud":-75.1242},{"ciudad":"Retiro","latitud":6.0597,"longitud":-75.5039},{"ciudad":"Río de Oro","latitud":8.2917,"longitud":-73.3872},{"ciudad":"Rioblanco","latitud":3.5292,"longitud":-75.6447},{"ciudad":"Ríohacha","latitud":11.5442,"longitud":-72.9069},{"ciudad":"Riosucio","latitud":5.4208,"longitud":-75.7028},{"ciudad":"Riosucio","latitud":7.4386,"longitud":-77.1133},{"ciudad":"Roldanillo","latitud":4.4136,"longitud":-76.1547},{"ciudad":"Rosas","latitud":2.26,"longitud":-76.74},{"ciudad":"Rovira","latitud":4.2392,"longitud":-75.2403},{"ciudad":"Sabana de Torres","latitud":7.3903,"longitud":-73.5003},{"ciudad":"Sabanagrande","latitud":10.7903,"longitud":-74.7556},{"ciudad":"Sabanalarga","latitud":10.63,"longitud":-74.9236},{"ciudad":"Sabaneta","latitud":6.1508,"longitud":-75.615},{"ciudad":"Saboyá","latitud":5.6969,"longitud":-73.7631},{"ciudad":"Salento","latitud":4.6372,"longitud":-75.5708},{"ciudad":"Salgar","latitud":5.9639,"longitud":-75.9775},{"ciudad":"Samacá","latitud":5.4919,"longitud":-73.4867},{"ciudad":"Samaniego","latitud":1.3364,"longitud":-77.5925},{"ciudad":"Sampués","latitud":9.1847,"longitud":-75.3786},{"ciudad":"San Agustín","latitud":1.8792,"longitud":-76.2683},{"ciudad":"San Alberto","latitud":7.7592,"longitud":-73.3931},{"ciudad":"San Andrés","latitud":12.5847,"longitud":-81.7006},{"ciudad":"San Andrés de Sotavento","latitud":9.1453,"longitud":-75.5086},{"ciudad":"San Antero","latitud":9.3775,"longitud":-75.7603},{"ciudad":"San Benito Abad","latitud":8.9272,"longitud":-75.0264},{"ciudad":"San Bernardo","latitud":1.5164,"longitud":-77.0467},{"ciudad":"San Bernardo del Viento","latitud":9.355,"longitud":-75.9544},{"ciudad":"San Carlos","latitud":8.7944,"longitud":-75.6994},{"ciudad":"San Francisco","latitud":4.9711,"longitud":-74.2892},{"ciudad":"San Gil","latitud":6.555,"longitud":-73.1336},{"ciudad":"San Jacinto","latitud":9.8311,"longitud":-75.1219},{"ciudad":"San Jacinto del Cauca","latitud":8.2497,"longitud":-74.72},{"ciudad":"San José","latitud":1.6967,"longitud":-78.2453},{"ciudad":"San José","latitud":1.4739,"longitud":-77.0808},{"ciudad":"San José de Pare","latitud":6.0192,"longitud":-73.5467},{"ciudad":"San José del Guaviare","latitud":2.5653,"longitud":-72.6386},{"ciudad":"San Juan de Urabá","latitud":8.7611,"longitud":-76.5286},{"ciudad":"San Juan del Cesar","latitud":10.7708,"longitud":-73.0031},{"ciudad":"San Juan Nepomuceno","latitud":9.9522,"longitud":-75.0811},{"ciudad":"San Lorenzo","latitud":1.5039,"longitud":-77.2178},{"ciudad":"San Luis de Palenque","latitud":5.4222,"longitud":-71.7314},{"ciudad":"San Luis de Sincé","latitud":9.2447,"longitud":-75.1458},{"ciudad":"San Marcos","latitud":8.6622,"longitud":-75.1289},{"ciudad":"San Martín","latitud":3.6969,"longitud":-73.6986},{"ciudad":"San Onofre","latitud":9.7372,"longitud":-75.5256},{"ciudad":"San Pablo","latitud":7.4764,"longitud":-73.9231},{"ciudad":"San Pedro de Urabá","latitud":8.275,"longitud":-76.3769},{"ciudad":"San Pelayo","latitud":8.9578,"longitud":-75.8375},{"ciudad":"San Vicente de Chucurí","latitud":6.8819,"longitud":-73.4119},{"ciudad":"San Vicente del Caguán","latitud":2.1153,"longitud":-74.77},{"ciudad":"San Zenón","latitud":9.245,"longitud":-74.4992},{"ciudad":"Sandoná","latitud":1.2847,"longitud":-77.4711},{"ciudad":"Santa Ana","latitud":9.3194,"longitud":-74.5706},{"ciudad":"Santa Bárbara","latitud":5.8747,"longitud":-75.5661},{"ciudad":"Santa Bárbara de Pinto","latitud":9.4353,"longitud":-74.7017},{"ciudad":"Santa Fe de Antioquia","latitud":6.5564,"longitud":-75.8275},{"ciudad":"Santa Lucía","latitud":10.3247,"longitud":-74.9589},{"ciudad":"Santa Marta","latitud":11.2361,"longitud":-74.2017},{"ciudad":"Santa Rosa","latitud":10.4456,"longitud":-75.3686},{"ciudad":"Santa Rosa de Cabal","latitud":4.8672,"longitud":-75.6211},{"ciudad":"Santa Rosa de Osos","latitud":6.6472,"longitud":-75.4606},{"ciudad":"Santa Rosa del Sur","latitud":7.9633,"longitud":-74.0533},{"ciudad":"Santana","latitud":6.0572,"longitud":-73.4811},{"ciudad":"Santander de Quilichao","latitud":3.0083,"longitud":-76.4839},{"ciudad":"Santiago de Tolú","latitud":9.525,"longitud":-75.5817},{"ciudad":"Santo Domingo","latitud":6.4708,"longitud":-75.1658},{"ciudad":"Sardinata","latitud":8.0836,"longitud":-72.8003},{"ciudad":"Segovia","latitud":7.0781,"longitud":-74.7017},{"ciudad":"Sibaté","latitud":4.4908,"longitud":-74.2594},{"ciudad":"Silvania","latitud":4.4033,"longitud":-74.3881},{"ciudad":"Silvia","latitud":2.6108,"longitud":-76.3789},{"ciudad":"Simacota","latitud":6.4431,"longitud":-73.3375},{"ciudad":"Simití","latitud":7.9564,"longitud":-73.9461},{"ciudad":"Sincelejo","latitud":9.2994,"longitud":-75.3958},{"ciudad":"Sitionuevo","latitud":10.7758,"longitud":-74.7203},{"ciudad":"Soacha","latitud":4.5781,"longitud":-74.2144},{"ciudad":"Soatá","latitud":6.3328,"longitud":-72.6839},{"ciudad":"Socha","latitud":5.9978,"longitud":-72.6922},{"ciudad":"Socorro","latitud":6.4603,"longitud":-73.27},{"ciudad":"Sogamoso","latitud":5.7158,"longitud":-72.9333},{"ciudad":"Solano","latitud":0.6983,"longitud":-75.2539},{"ciudad":"Soledad","latitud":10.92,"longitud":-74.77},{"ciudad":"Sonsón","latitud":5.7094,"longitud":-75.3106},{"ciudad":"Sopetrán","latitud":6.5017,"longitud":-75.7433},{"ciudad":"Sopó","latitud":4.9081,"longitud":-73.9403},{"ciudad":"Sotomayor","latitud":1.4933,"longitud":-77.5214},{"ciudad":"Suaita","latitud":6.1019,"longitud":-73.4406},{"ciudad":"Suaza","latitud":1.975,"longitud":-75.7956},{"ciudad":"Suesca","latitud":5.1017,"longitud":-73.7981},{"ciudad":"Supía","latitud":5.4506,"longitud":-75.6514},{"ciudad":"Sutamarchán","latitud":5.6206,"longitud":-73.6214},{"ciudad":"Tabio","latitud":4.9158,"longitud":-74.0983},{"ciudad":"Tadó","latitud":5.2633,"longitud":-76.56},{"ciudad":"Talaigua Nuevo","latitud":9.3028,"longitud":-74.5678},{"ciudad":"Tame","latitud":6.4583,"longitud":-71.7447},{"ciudad":"Támesis","latitud":5.6647,"longitud":-75.7144},{"ciudad":"Taminango","latitud":1.57,"longitud":-77.2806},{"ciudad":"Tarazá","latitud":7.5839,"longitud":-75.4003},{"ciudad":"Tarso","latitud":5.865,"longitud":-75.8225},{"ciudad":"Tauramena","latitud":5.0167,"longitud":-72.75},{"ciudad":"Tenerife","latitud":9.8989,"longitud":-74.8589},{"ciudad":"Tenjo","latitud":4.8697,"longitud":-74.1439},{"ciudad":"Teorama","latitud":8.4353,"longitud":-73.2864},{"ciudad":"Tibaná","latitud":5.3172,"longitud":-73.3969},{"ciudad":"Tibú","latitud":8.64,"longitud":-72.7381},{"ciudad":"Tierralta","latitud":8.1728,"longitud":-76.0594},{"ciudad":"Timaná","latitud":1.9499,"longitud":-75.9139},{"ciudad":"Timbío","latitud":2.3528,"longitud":-76.6819},{"ciudad":"Timbiquí","latitud":2.7719,"longitud":-77.665},{"ciudad":"Tiquisio","latitud":8.5578,"longitud":-74.2639},{"ciudad":"Titiribí","latitud":6.0625,"longitud":-75.7936},{"ciudad":"Tocaima","latitud":4.4578,"longitud":-74.6347},{"ciudad":"Tocancipá","latitud":4.9661,"longitud":-73.9111},{"ciudad":"Tona","latitud":7.2019,"longitud":-72.9664},{"ciudad":"Tota","latitud":5.5603,"longitud":-72.9861},{"ciudad":"Totoró","latitud":2.5103,"longitud":-76.4019},{"ciudad":"Tubará","latitud":10.8742,"longitud":-74.9786},{"ciudad":"Tuchín","latitud":9.1858,"longitud":-75.5553},{"ciudad":"Tuluá","latitud":4.0847,"longitud":-76.1986},{"ciudad":"Tumaco","latitud":1.8067,"longitud":-78.7647},{"ciudad":"Tunja","latitud":5.5403,"longitud":-73.3614},{"ciudad":"Túquerres","latitud":1.0872,"longitud":-77.6189},{"ciudad":"Turbaco","latitud":10.3319,"longitud":-75.4142},{"ciudad":"Turbo","latitud":8.0931,"longitud":-76.7283},{"ciudad":"Uramita","latitud":6.8986,"longitud":-76.1736},{"ciudad":"Uribe","latitud":3.2408,"longitud":-74.3536},{"ciudad":"Uribia","latitud":11.7139,"longitud":-72.2658},{"ciudad":"Urrao","latitud":6.3156,"longitud":-76.1342},{"ciudad":"Urumita","latitud":10.5603,"longitud":-73.0136},{"ciudad":"Usiacurí","latitud":10.7428,"longitud":-74.9758},{"ciudad":"Valdivia","latitud":7.1636,"longitud":-75.4392},{"ciudad":"Valencia","latitud":8.2592,"longitud":-76.1469},{"ciudad":"Valle del Guamuez","latitud":0.4253,"longitud":-76.9053},{"ciudad":"Valledupar","latitud":10.4603,"longitud":-73.2597},{"ciudad":"Vélez","latitud":6.0131,"longitud":-73.6736},{"ciudad":"Villa de Leyva","latitud":5.6331,"longitud":-73.5256},{"ciudad":"Villa de San Diego de Ubaté","latitud":5.3072,"longitud":-73.8144},{"ciudad":"Villa del Rosario","latitud":7.8353,"longitud":-72.4736},{"ciudad":"Villagarzón","latitud":1.0294,"longitud":-76.6164},{"ciudad":"Villamaría","latitud":5.0456,"longitud":-75.5153},{"ciudad":"Villanueva","latitud":4.6087,"longitud":-72.9288},{"ciudad":"Villanueva","latitud":6.6719,"longitud":-73.1747},{"ciudad":"Villapinzón","latitud":5.2158,"longitud":-73.5967},{"ciudad":"Villavicencio","latitud":4.1425,"longitud":-73.6294},{"ciudad":"Villeta","latitud":5.0128,"longitud":-74.4731},{"ciudad":"Vistahermosa","latitud":3.1239,"longitud":-73.7514},{"ciudad":"Yarumal","latitud":6.9633,"longitud":-75.4172},{"ciudad":"Yarumal","latitud":7.0306,"longitud":-75.5905},{"ciudad":"Yolombó","latitud":6.5978,"longitud":-75.0122},{"ciudad":"Yopal","latitud":5.3306,"longitud":-72.3906},{"ciudad":"Yumbo","latitud":3.5778,"longitud":-76.4944},{"ciudad":"Zapatoca","latitud":6.815,"longitud":-73.2683},{"ciudad":"Zarzal","latitud":4.3942,"longitud":-76.0703},{"ciudad":"Zipacón","latitud":4.76,"longitud":-74.3797},{"ciudad":"Zipaquirá","latitud":5.0247,"longitud":-74.0014}]},{"pais":"Ecuador","ciudades":[{"ciudad":"Alausí","latitud":-2.19,"longitud":-78.85},{"ciudad":"Ambato","latitud":-1.2417,"longitud":-78.6197},{"ciudad":"Archidona","latitud":-0.9167,"longitud":-77.7833},{"ciudad":"Atacames","latitud":0.8667,"longitud":-79.8333},{"ciudad":"Atuntaqui","latitud":0.3325,"longitud":-78.2136},{"ciudad":"Azogues","latitud":-2.7333,"longitud":-78.8333},{"ciudad":"Babahoyo","latitud":-1.8167,"longitud":-79.5167},{"ciudad":"Bahía de Caráquez","latitud":-0.6,"longitud":-80.425},{"ciudad":"Balzar","latitud":-1.36,"longitud":-79.9},{"ciudad":"Baños","latitud":-1.3964,"longitud":-78.4247},{"ciudad":"Catamayo","latitud":-3.9833,"longitud":-79.35},{"ciudad":"Cayambe","latitud":0.0439,"longitud":-78.1561},{"ciudad":"Chone","latitud":-0.6833,"longitud":-80.1},{"ciudad":"Cuenca","latitud":-2.8974,"longitud":-79.0045},{"ciudad":"Daule","latitud":-1.8667,"longitud":-79.9833},{"ciudad":"Eloy Alfaro","latitud":-2.1733,"longitud":-79.8311},{"ciudad":"Esmeraldas","latitud":0.95,"longitud":-79.6667},{"ciudad":"Guaranda","latitud":-1.6056,"longitud":-79.0031},{"ciudad":"Guayaquil","latitud":-2.1833,"longitud":-79.8833},{"ciudad":"Huaquillas","latitud":-3.4803,"longitud":-80.2317},{"ciudad":"Ibarra","latitud":0.3628,"longitud":-78.13},{"ciudad":"Jipijapa","latitud":-1.3486,"longitud":-80.5786},{"ciudad":"La Concordia","latitud":0.0069,"longitud":-79.3958},{"ciudad":"La Maná","latitud":-0.9417,"longitud":-79.2347},{"ciudad":"La Troncal","latitud":-2.4278,"longitud":-79.3389},{"ciudad":"Latacunga","latitud":-0.9333,"longitud":-78.6167},{"ciudad":"Loja","latitud":-3.9906,"longitud":-79.205},{"ciudad":"Lomas de Sargentillo","latitud":-1.8833,"longitud":-80.0833},{"ciudad":"Macará","latitud":-4.3833,"longitud":-79.95},{"ciudad":"Macas","latitud":-2.3,"longitud":-78.1167},{"ciudad":"Machala","latitud":-3.2667,"longitud":-79.9667},{"ciudad":"Manta","latitud":-0.95,"longitud":-80.7162},{"ciudad":"Milagro","latitud":-2.1347,"longitud":-79.5872},{"ciudad":"Montecristi","latitud":-1.05,"longitud":-80.6667},{"ciudad":"Muisne","latitud":0.61,"longitud":-80.02},{"ciudad":"Naranjal","latitud":-2.6736,"longitud":-79.6183},{"ciudad":"Naranjito","latitud":-2.1667,"longitud":-79.4653},{"ciudad":"Nueva Loja","latitud":0.0844,"longitud":-76.8911},{"ciudad":"Otavalo","latitud":0.2333,"longitud":-78.2667},{"ciudad":"Pasaje","latitud":-3.3269,"longitud":-79.8049},{"ciudad":"Pedernales","latitud":0.0719,"longitud":-80.0508},{"ciudad":"Pedro Carbo","latitud":-1.8167,"longitud":-80.2333},{"ciudad":"Pedro Vicente Maldonado","latitud":0.0853,"longitud":-79.0511},{"ciudad":"Pelileo","latitud":-1.3306,"longitud":-78.5428},{"ciudad":"Píllaro","latitud":-1.1667,"longitud":-78.5333},{"ciudad":"Piñas","latitud":-3.6806,"longitud":-79.6806},{"ciudad":"Portoviejo","latitud":-1.0544,"longitud":-80.4544},{"ciudad":"Puerto Ayora","latitud":-0.7444,"longitud":-90.3139},{"ciudad":"Puerto Baquerizo Moreno","latitud":-0.9025,"longitud":-89.6092},{"ciudad":"Puerto Francisco de Orellana","latitud":-0.4625,"longitud":-76.9842},{"ciudad":"Puerto Quito","latitud":0.1272,"longitud":-79.2531},{"ciudad":"Puerto Villamil","latitud":-0.9333,"longitud":-91.0167},{"ciudad":"Puyo","latitud":-1.483,"longitud":-77.987},{"ciudad":"Quevedo","latitud":-1.0333,"longitud":-79.45},{"ciudad":"Quito","latitud":-0.2186,"longitud":-78.5097},{"ciudad":"Riobamba","latitud":-1.6743,"longitud":-78.6483},{"ciudad":"Rosa Zarate","latitud":0.3272,"longitud":-79.4689},{"ciudad":"Salinas","latitud":-2.2083,"longitud":-80.9681},{"ciudad":"Samborondón","latitud":-1.9611,"longitud":-79.7256},{"ciudad":"San Gabriel","latitud":0.61,"longitud":-77.84},{"ciudad":"San Jacinto de Buena Fe","latitud":-0.8932,"longitud":-79.4907},{"ciudad":"San Lorenzo de Esmeraldas","latitud":1.2864,"longitud":-78.8353},{"ciudad":"San Miguel de Salcedo","latitud":-1.05,"longitud":-78.5833},{"ciudad":"Sangolquí","latitud":-0.3344,"longitud":-78.4475},{"ciudad":"Santa Cruz","latitud":-0.5333,"longitud":-90.35},{"ciudad":"Santa Elena","latitud":-2.2267,"longitud":-80.8583},{"ciudad":"Santa Rosa","latitud":-3.4522,"longitud":-79.9617},{"ciudad":"Santo Domingo de los Colorados","latitud":-0.2542,"longitud":-79.1719},{"ciudad":"Tena","latitud":-0.989,"longitud":-77.8159},{"ciudad":"Tosagua","latitud":-0.7864,"longitud":-80.2342},{"ciudad":"Tulcán","latitud":0.8117,"longitud":-77.7186},{"ciudad":"Valdez","latitud":1.2671,"longitud":-78.9855},{"ciudad":"Valencia","latitud":-0.9525,"longitud":-79.3531},{"ciudad":"Velasco Ibarra","latitud":-1.0439,"longitud":-79.6383},{"ciudad":"Ventanas","latitud":-1.45,"longitud":-79.47},{"ciudad":"Vinces","latitud":-1.55,"longitud":-79.7333},{"ciudad":"Yaguachi Nuevo","latitud":-2.12,"longitud":-79.69},{"ciudad":"Yaupi","latitud":-2.8543,"longitud":-77.9363},{"ciudad":"Zamora","latitud":-4.0692,"longitud":-78.9567}]},{"pais":"Paraguay","ciudades":[{"ciudad":"Abaí","latitud":-26.0296,"longitud":-55.94},{"ciudad":"Areguá","latitud":-25.3,"longitud":-57.4169},{"ciudad":"Arroyos y Esteros","latitud":-25.05,"longitud":-57.09},{"ciudad":"Asunción","latitud":-25.3,"longitud":-57.6333},{"ciudad":"Belén","latitud":-23.4695,"longitud":-57.24},{"ciudad":"Bella Vista","latitud":-22.1296,"longitud":-56.52},{"ciudad":"Caacupé","latitud":-25.387,"longitud":-57.14},{"ciudad":"Caazapá","latitud":-26.2,"longitud":-56.38},{"ciudad":"Capitán Pablo Lagerenza","latitud":-19.9161,"longitud":-60.7833},{"ciudad":"Ciudad del Este","latitud":-25.5167,"longitud":-54.6167},{"ciudad":"Concepción","latitud":-23.4025,"longitud":-57.4414},{"ciudad":"Coronel Bogado","latitud":-27.17,"longitud":-56.25},{"ciudad":"Coronel Oviedo","latitud":-25.45,"longitud":-56.44},{"ciudad":"Encarnación","latitud":-27.3333,"longitud":-55.8667},{"ciudad":"Filadelfia","latitud":-22.3333,"longitud":-60.0167},{"ciudad":"Fuerte Olimpo","latitud":-21.0696,"longitud":-57.9},{"ciudad":"General Eugenio A. Garay","latitud":-20.52,"longitud":-62.21},{"ciudad":"Hohenau","latitud":-27.0795,"longitud":-55.75},{"ciudad":"Horqueta","latitud":-23.3396,"longitud":-57.05},{"ciudad":"Itá","latitud":-25.4833,"longitud":-57.35},{"ciudad":"Mariscal José Félix Estigarribia","latitud":-22.03,"longitud":-60.61},{"ciudad":"Ñacunday","latitud":-26.02,"longitud":-54.7699},{"ciudad":"Paraguarí","latitud":-25.62,"longitud":-57.16},{"ciudad":"Pedro Juan Caballero","latitud":-22.5667,"longitud":-55.7167},{"ciudad":"Pilar","latitud":-26.8569,"longitud":-58.3039},{"ciudad":"Pozo Colorado","latitud":-23.43,"longitud":-58.86},{"ciudad":"Puerto Casado","latitud":-22.2896,"longitud":-57.94},{"ciudad":"Puerto Pinasco","latitud":-22.64,"longitud":-57.79},{"ciudad":"Salto del Guairá","latitud":-24.02,"longitud":-54.34},{"ciudad":"San Antonio","latitud":-25.3797,"longitud":-57.6097},{"ciudad":"San Ignacio","latitud":-26.8867,"longitud":-57.0283},{"ciudad":"San Juan Bautista","latitud":-26.68,"longitud":-57.15},{"ciudad":"San Lorenzo","latitud":-25.3431,"longitud":-57.5094},{"ciudad":"San Pedro de Ycuamandiyú","latitud":-24.1,"longitud":-57.0833},{"ciudad":"Tobatí","latitud":-25.26,"longitud":-57.0814},{"ciudad":"Villa del Rosario","latitud":-24.4196,"longitud":-57.1},{"ciudad":"Villa Hayes","latitud":-25.09,"longitud":-57.53},{"ciudad":"Villa Ygatimí","latitud":-24.0796,"longitud":-55.5},{"ciudad":"Villarrica","latitud":-25.75,"longitud":-56.4333},{"ciudad":"Yaguarón","latitud":-25.5621,"longitud":-57.284},{"ciudad":"Ypacaraí","latitud":-25.41,"longitud":-57.28},{"ciudad":"Ypané","latitud":-25.45,"longitud":-57.53},{"ciudad":"Ypejhú","latitud":-23.91,"longitud":-55.46}]},{"pais":"Peru","ciudades":[{"ciudad":"Ica","latitud":-14.0667,"longitud":-75.7333},{"ciudad":"Abancay","latitud":-13.6333,"longitud":-72.8833},{"ciudad":"Andahuaylas","latitud":-13.6575,"longitud":-73.3833},{"ciudad":"Andoas","latitud":-2.9021,"longitud":-76.4025},{"ciudad":"Arequipa","latitud":-16.3988,"longitud":-71.5369},{"ciudad":"Ayacucho","latitud":-13.1631,"longitud":-74.2244},{"ciudad":"Ayaviri","latitud":-14.8818,"longitud":-70.5901},{"ciudad":"Bagua Grande","latitud":-5.7572,"longitud":-78.4453},{"ciudad":"Barranca","latitud":-10.7539,"longitud":-77.761},{"ciudad":"Caballococha","latitud":-3.9058,"longitud":-70.5164},{"ciudad":"Cajabamba","latitud":-7.6237,"longitud":-78.046},{"ciudad":"Cajamarca","latitud":-7.1644,"longitud":-78.5106},{"ciudad":"Callao","latitud":-12.0611,"longitud":-77.1333},{"ciudad":"Camaná","latitud":-16.6233,"longitud":-72.7092},{"ciudad":"Carás","latitud":-9.0483,"longitud":-77.8108},{"ciudad":"Casma","latitud":-9.4742,"longitud":-78.3106},{"ciudad":"Cerro de Pasco","latitud":-10.6864,"longitud":-76.2625},{"ciudad":"Chachapoyas","latitud":-6.2167,"longitud":-77.85},{"ciudad":"Chancay","latitud":-11.5653,"longitud":-77.2714},{"ciudad":"Chiclayo","latitud":-6.763,"longitud":-79.8366},{"ciudad":"Chilca","latitud":-12.5196,"longitud":-76.74},{"ciudad":"Chimbote","latitud":-9.0745,"longitud":-78.5936},{"ciudad":"Chincha Alta","latitud":-13.45,"longitud":-76.1333},{"ciudad":"Chosica","latitud":-11.9361,"longitud":-76.6972},{"ciudad":"Chota","latitud":-6.5614,"longitud":-78.6486},{"ciudad":"Chulucanas","latitud":-5.1092,"longitud":-80.1625},{"ciudad":"Contamana","latitud":-7.3333,"longitud":-75.0167},{"ciudad":"Coracora","latitud":-15.017,"longitud":-73.7804},{"ciudad":"Cusco","latitud":-13.5183,"longitud":-71.9781},{"ciudad":"Desaguadero","latitud":-16.5684,"longitud":-69.0421},{"ciudad":"Ferreñafe","latitud":-6.6391,"longitud":-79.788},{"ciudad":"Forbe Oroya","latitud":-11.5333,"longitud":-75.9},{"ciudad":"Güeppí","latitud":-0.1166,"longitud":-75.23},{"ciudad":"Huacho","latitud":-11.1083,"longitud":-77.6083},{"ciudad":"Huamachuco","latitud":-7.8121,"longitud":-78.0487},{"ciudad":"Huancavelica","latitud":-12.785,"longitud":-74.9714},{"ciudad":"Huancayo","latitud":-12.0667,"longitud":-75.2167},{"ciudad":"Huanta","latitud":-12.9397,"longitud":-74.2475},{"ciudad":"Huánuco","latitud":-9.9294,"longitud":-76.2397},{"ciudad":"Huaral","latitud":-11.5008,"longitud":-77.2091},{"ciudad":"Huaraz","latitud":-9.5333,"longitud":-77.5333},{"ciudad":"Huarmey","latitud":-10.0686,"longitud":-78.1603},{"ciudad":"Huaura","latitud":-11.1,"longitud":-77.6},{"ciudad":"Huaycan","latitud":-12.0139,"longitud":-76.825},{"ciudad":"Ilave","latitud":-16.0866,"longitud":-69.6354},{"ciudad":"Ilo","latitud":-17.6486,"longitud":-71.3306},{"ciudad":"Iquitos","latitud":-3.7333,"longitud":-73.25},{"ciudad":"Jaén","latitud":-5.6992,"longitud":-78.8009},{"ciudad":"Jauja","latitud":-11.775,"longitud":-75.5},{"ciudad":"Juanjuí","latitud":-7.1802,"longitud":-76.7265},{"ciudad":"Juli","latitud":-16.2125,"longitud":-69.4603},{"ciudad":"Juliaca","latitud":-15.4908,"longitud":-70.1269},{"ciudad":"Junín","latitud":-11.15,"longitud":-75.9833},{"ciudad":"Lamas","latitud":-6.4167,"longitud":-76.5333},{"ciudad":"Lambayeque","latitud":-6.7,"longitud":-79.9},{"ciudad":"Lima","latitud":-12.05,"longitud":-77.0333},{"ciudad":"Mollendo","latitud":-17.0167,"longitud":-72.0167},{"ciudad":"Moquegua","latitud":-17.2,"longitud":-70.9333},{"ciudad":"Motupe","latitud":-6.1508,"longitud":-79.7208},{"ciudad":"Moyobamba","latitud":-6.0333,"longitud":-76.9667},{"ciudad":"Nauta","latitud":-4.5083,"longitud":-73.5833},{"ciudad":"Nazca","latitud":-14.8289,"longitud":-74.9436},{"ciudad":"Olmos","latitud":-5.9796,"longitud":-79.75},{"ciudad":"Otuzco","latitud":-7.9025,"longitud":-78.5657},{"ciudad":"Oxapampa","latitud":-10.58,"longitud":-75.4},{"ciudad":"Pacasmayo","latitud":-7.4003,"longitud":-79.57},{"ciudad":"Paita","latitud":-5.0667,"longitud":-81.1},{"ciudad":"Pativilca","latitud":-10.6996,"longitud":-77.8},{"ciudad":"Pisco","latitud":-13.71,"longitud":-76.2032},{"ciudad":"Piura","latitud":-5.2008,"longitud":-80.6253},{"ciudad":"Puca Urco","latitud":-2.3328,"longitud":-71.9167},{"ciudad":"Pucallpa","latitud":-8.3833,"longitud":-74.55},{"ciudad":"Puerto Maldonado","latitud":-12.6,"longitud":-69.1833},{"ciudad":"Puerto Pimentel","latitud":-6.8367,"longitud":-79.9342},{"ciudad":"Puno","latitud":-15.8433,"longitud":-70.0236},{"ciudad":"Puquio","latitud":-14.6939,"longitud":-74.1241},{"ciudad":"Putina","latitud":-15.47,"longitud":-69.43},{"ciudad":"Requena","latitud":-5.0569,"longitud":-73.8515},{"ciudad":"Rocafuerte","latitud":-0.9329,"longitud":-75.4},{"ciudad":"Salaverry","latitud":-8.22,"longitud":-78.99},{"ciudad":"San Pedro de Lloc","latitud":-7.4267,"longitud":-79.5038},{"ciudad":"San Ramón","latitud":-11.1247,"longitud":-75.3569},{"ciudad":"San Vicente de Cañete","latitud":-13.0833,"longitud":-76.4},{"ciudad":"Santiago","latitud":-14.1896,"longitud":-75.74},{"ciudad":"Santo Tomás","latitud":-14.45,"longitud":-72.082},{"ciudad":"Satipo","latitud":-11.2522,"longitud":-74.6386},{"ciudad":"Sechura","latitud":-5.5576,"longitud":-80.8223},{"ciudad":"Sicuani","latitud":-14.2694,"longitud":-71.2261},{"ciudad":"Soldado Bartra","latitud":-2.5161,"longitud":-75.7666},{"ciudad":"Sullana","latitud":-4.9039,"longitud":-80.6853},{"ciudad":"Tacna","latitud":-18.0556,"longitud":-70.2483},{"ciudad":"Talara","latitud":-4.5833,"longitud":-81.2667},{"ciudad":"Tarapoto","latitud":-6.4833,"longitud":-76.3667},{"ciudad":"Tarma","latitud":-11.4167,"longitud":-75.6833},{"ciudad":"Tingo María","latitud":-9.3015,"longitud":-76.0361},{"ciudad":"Tocache Nuevo","latitud":-8.1886,"longitud":-76.5103},{"ciudad":"Tournavista","latitud":-8.9322,"longitud":-74.7052},{"ciudad":"Trujillo","latitud":-8.1119,"longitud":-79.0289},{"ciudad":"Tumbes","latitud":-3.5667,"longitud":-80.45},{"ciudad":"Urubamba","latitud":-13.3042,"longitud":-72.1167},{"ciudad":"Virú","latitud":-8.4143,"longitud":-78.7524},{"ciudad":"Yungay","latitud":-9.1389,"longitud":-77.7444},{"ciudad":"Yurimaguas","latitud":-5.9,"longitud":-76.0833},{"ciudad":"Zarumilla","latitud":-3.5014,"longitud":-80.2722}]},{"pais":"Uruguay","ciudades":[{"ciudad":"Aiguá","latitud":-34.2,"longitud":-54.75},{"ciudad":"Artigas","latitud":-30.4667,"longitud":-56.4667},{"ciudad":"Atlántida","latitud":-34.7701,"longitud":-55.7613},{"ciudad":"Baltasar Brum","latitud":-30.73,"longitud":-57.32},{"ciudad":"Barros Blancos","latitud":-34.7542,"longitud":-56.0042},{"ciudad":"Bella Unión","latitud":-30.26,"longitud":-57.5992},{"ciudad":"Canelones","latitud":-34.5228,"longitud":-56.2778},{"ciudad":"Carmelo","latitud":-33.9999,"longitud":-58.2847},{"ciudad":"Castillos","latitud":-34.1989,"longitud":-53.8575},{"ciudad":"Ciudad de la Costa","latitud":-34.8167,"longitud":-55.95},{"ciudad":"Colonia del Sacramento","latitud":-34.4714,"longitud":-57.8442},{"ciudad":"Dolores","latitud":-33.5333,"longitud":-58.2167},{"ciudad":"Durazno","latitud":-33.3833,"longitud":-56.5167},{"ciudad":"Florida","latitud":-34.1,"longitud":-56.2167},{"ciudad":"Fray Bentos","latitud":-33.1333,"longitud":-58.3},{"ciudad":"Guichón","latitud":-32.35,"longitud":-57.2},{"ciudad":"José Batlle y Ordóñez","latitud":-33.47,"longitud":-55.12},{"ciudad":"José Pedro Varela","latitud":-33.45,"longitud":-54.5333},{"ciudad":"La Paloma","latitud":-34.67,"longitud":-54.17},{"ciudad":"Las Piedras","latitud":-34.7167,"longitud":-56.2167},{"ciudad":"Lascano","latitud":-33.6731,"longitud":-54.2078},{"ciudad":"Libertad","latitud":-34.6333,"longitud":-56.6192},{"ciudad":"Maldonado","latitud":-34.91,"longitud":-54.96},{"ciudad":"Melo","latitud":-32.3595,"longitud":-54.18},{"ciudad":"Mercedes","latitud":-33.25,"longitud":-58.0319},{"ciudad":"Minas","latitud":-34.3667,"longitud":-55.2333},{"ciudad":"Montevideo","latitud":-34.8667,"longitud":-56.1667},{"ciudad":"Nueva Helvecia","latitud":-34.2889,"longitud":-57.2333},{"ciudad":"Nueva Palmira","latitud":-33.87,"longitud":-58.408},{"ciudad":"Pan de Azúcar","latitud":-34.8,"longitud":-55.2167},{"ciudad":"Pando","latitud":-34.7167,"longitud":-55.9583},{"ciudad":"Parque del Plata","latitud":-34.7667,"longitud":-55.7167},{"ciudad":"Paso de los Toros","latitud":-32.8181,"longitud":-56.5064},{"ciudad":"Paysandú","latitud":-32.32,"longitud":-58.0756},{"ciudad":"Piriápolis","latitud":-34.8661,"longitud":-55.2747},{"ciudad":"Punta del Este","latitud":-34.9786,"longitud":-54.9331},{"ciudad":"Río Branco","latitud":-32.5969,"longitud":-53.385},{"ciudad":"Rivera","latitud":-30.9025,"longitud":-55.5506},{"ciudad":"Rocha","latitud":-34.4833,"longitud":-54.35},{"ciudad":"Rosario","latitud":-34.3139,"longitud":-57.3525},{"ciudad":"Salinas","latitud":-34.7751,"longitud":-55.8402},{"ciudad":"Salto","latitud":-31.3883,"longitud":-57.9606},{"ciudad":"San Jacinto","latitud":-34.5444,"longitud":-55.8719},{"ciudad":"San José","latitud":-34.3333,"longitud":-56.7167},{"ciudad":"San Ramón","latitud":-34.2914,"longitud":-55.9542},{"ciudad":"Santa Lucía","latitud":-34.4525,"longitud":-56.3964},{"ciudad":"Sarandí del Yi","latitud":-33.3442,"longitud":-55.6313},{"ciudad":"Sarandí Grande","latitud":-33.725,"longitud":-56.3303},{"ciudad":"Sauce","latitud":-34.6469,"longitud":-56.0628},{"ciudad":"Tacuarembó","latitud":-31.71,"longitud":-55.98},{"ciudad":"Tala","latitud":-34.3436,"longitud":-55.7617},{"ciudad":"Tranqueras","latitud":-31.1833,"longitud":-55.7667},{"ciudad":"Treinta y Tres","latitud":-33.2308,"longitud":-54.3822},{"ciudad":"Trinidad","latitud":-33.5333,"longitud":-56.8833},{"ciudad":"Vergara","latitud":-32.9377,"longitud":-53.9378}]},{"pais":"Venezuela","ciudades":[{"ciudad":"Acarigua","latitud":9.5597,"longitud":-69.2019},{"ciudad":"Altagracia de Orituco","latitud":9.8504,"longitud":-66.38},{"ciudad":"Anaco","latitud":9.4333,"longitud":-64.4667},{"ciudad":"Barcelona","latitud":10.1333,"longitud":-64.6833},{"ciudad":"Barinas","latitud":8.615,"longitud":-70.1985},{"ciudad":"Barquisimeto","latitud":10.0678,"longitud":-69.3467},{"ciudad":"Baruta","latitud":10.4335,"longitud":-66.8754},{"ciudad":"Bruzual","latitud":8.0519,"longitud":-69.3292},{"ciudad":"Cabimas","latitud":10.4,"longitud":-71.4333},{"ciudad":"Cabudare","latitud":10.0331,"longitud":-69.2633},{"ciudad":"Cagua","latitud":10.1875,"longitud":-67.4611},{"ciudad":"Calabozo","latitud":8.9219,"longitud":-67.4283},{"ciudad":"Cantaura","latitud":9.3005,"longitud":-64.3564},{"ciudad":"Caracas","latitud":10.5,"longitud":-66.9333},{"ciudad":"Caripito","latitud":10.111,"longitud":-63.1048},{"ciudad":"Carora","latitud":10.1692,"longitud":-70.0783},{"ciudad":"Carúpano","latitud":10.6722,"longitud":-63.2403},{"ciudad":"Catia La Mar","latitud":10.6,"longitud":-67.0333},{"ciudad":"Chaguarama","latitud":9.2159,"longitud":-63.7523},{"ciudad":"Charallave","latitud":10.2431,"longitud":-66.8622},{"ciudad":"Ciudad Bolívar","latitud":8.1167,"longitud":-63.55},{"ciudad":"Ciudad Guayana","latitud":8.3596,"longitud":-62.6517},{"ciudad":"Ciudad Ojeda","latitud":10.2,"longitud":-71.3},{"ciudad":"Coro","latitud":11.395,"longitud":-69.6816},{"ciudad":"Cúa","latitud":10.1667,"longitud":-66.8833},{"ciudad":"Cumaná","latitud":10.45,"longitud":-64.1667},{"ciudad":"El Dorado","latitud":6.7167,"longitud":-61.6167},{"ciudad":"El Limón","latitud":10.3059,"longitud":-67.6321},{"ciudad":"El Manteco","latitud":7.35,"longitud":-62.5453},{"ciudad":"El Tigre","latitud":8.8858,"longitud":-64.2611},{"ciudad":"El Tocuyo","latitud":9.7822,"longitud":-69.7931},{"ciudad":"Guacara","latitud":10.2261,"longitud":-67.877},{"ciudad":"Guanare","latitud":9.0436,"longitud":-69.7489},{"ciudad":"Guarenas","latitud":10.4739,"longitud":-66.5383},{"ciudad":"Guasdualito","latitud":7.2467,"longitud":-70.7292},{"ciudad":"Guatire","latitud":10.4717,"longitud":-66.5406},{"ciudad":"La Asunción","latitud":11.0333,"longitud":-63.8833},{"ciudad":"La Colonia Tovar","latitud":10.4167,"longitud":-67.2833},{"ciudad":"La Esmeralda","latitud":3.1738,"longitud":-65.5466},{"ciudad":"La Grita","latitud":8.1333,"longitud":-71.9833},{"ciudad":"La Guaira","latitud":10.6,"longitud":-66.9331},{"ciudad":"La Victoria","latitud":10.2278,"longitud":-67.3336},{"ciudad":"Lecherías","latitud":10.1889,"longitud":-64.6951},{"ciudad":"Los Teques","latitud":10.3411,"longitud":-67.0406},{"ciudad":"Machiques","latitud":10.0667,"longitud":-72.5667},{"ciudad":"Maiquetía","latitud":10.5958,"longitud":-66.9772},{"ciudad":"Mapire","latitud":7.7411,"longitud":-64.7107},{"ciudad":"Maracaibo","latitud":10.6333,"longitud":-71.6333},{"ciudad":"Maracay","latitud":10.2469,"longitud":-67.5958},{"ciudad":"Maturín","latitud":9.7457,"longitud":-63.1832},{"ciudad":"Mérida","latitud":8.5833,"longitud":-71.1333},{"ciudad":"Mucuchíes","latitud":8.75,"longitud":-70.9167},{"ciudad":"Ocumare del Tuy","latitud":10.1136,"longitud":-66.7814},{"ciudad":"Onoto","latitud":9.5958,"longitud":-65.1897},{"ciudad":"Palo Negro","latitud":10.16,"longitud":-67.5582},{"ciudad":"Porlamar","latitud":10.9556,"longitud":-63.8478},{"ciudad":"Puerto Ayacucho","latitud":5.6631,"longitud":-67.6264},{"ciudad":"Puerto Cabello","latitud":10.4667,"longitud":-68.0167},{"ciudad":"Puerto La Cruz","latitud":10.2167,"longitud":-64.6167},{"ciudad":"Puerto Píritu","latitud":10.0667,"longitud":-65.05},{"ciudad":"Punto Fijo","latitud":11.7167,"longitud":-70.1833},{"ciudad":"Quíbor","latitud":9.9281,"longitud":-69.5778},{"ciudad":"Rubio","latitud":7.7,"longitud":-72.35},{"ciudad":"Sabaneta","latitud":8.7522,"longitud":-69.9325},{"ciudad":"San Antonio del Táchira","latitud":7.8145,"longitud":-72.4431},{"ciudad":"San Carlos","latitud":9.65,"longitud":-68.5833},{"ciudad":"San Carlos del Zulia","latitud":9,"longitud":-71.95},{"ciudad":"San Cristóbal","latitud":7.7714,"longitud":-72.2261},{"ciudad":"San Diego","latitud":10.2558,"longitud":-67.9539},{"ciudad":"San Felipe","latitud":10.3353,"longitud":-68.7458},{"ciudad":"San Fernando","latitud":7.894,"longitud":-67.473},{"ciudad":"San José de Aerocuar","latitud":10.6014,"longitud":-63.3278},{"ciudad":"San Juan de los Morros","latitud":9.901,"longitud":-67.354},{"ciudad":"Sanare","latitud":9.7822,"longitud":-69.7931},{"ciudad":"Santa Cruz de Los Taques","latitud":11.8231,"longitud":-70.2535},{"ciudad":"Santa Lucía","latitud":10.2606,"longitud":-66.6639},{"ciudad":"Santa Rita","latitud":10.2003,"longitud":-67.5514},{"ciudad":"Santa Rita","latitud":10.5367,"longitud":-71.5108},{"ciudad":"Santa Teresa del Tuy","latitud":10.2333,"longitud":-66.65},{"ciudad":"Socopó","latitud":8.2322,"longitud":-70.8206},{"ciudad":"Táriba","latitud":7.8167,"longitud":-72.2167},{"ciudad":"Tocuyito","latitud":10.0889,"longitud":-68.0922},{"ciudad":"Trujillo","latitud":9.3667,"longitud":-70.4331},{"ciudad":"Tucacas","latitud":10.7978,"longitud":-68.3175},{"ciudad":"Tucupita","latitud":9.0575,"longitud":-62.0452},{"ciudad":"Turmero","latitud":10.2283,"longitud":-67.4753},{"ciudad":"Upata","latitud":8.0204,"longitud":-62.41},{"ciudad":"Uracoa","latitud":8.9996,"longitud":-62.3516},{"ciudad":"Valencia","latitud":10.1667,"longitud":-68},{"ciudad":"Valera","latitud":9.3206,"longitud":-70.6078},{"ciudad":"Valle de La Pascua","latitud":9.2033,"longitud":-66.0103},{"ciudad":"Villa de Cura","latitud":10.0386,"longitud":-67.4894},{"ciudad":"Yaritagua","latitud":10.08,"longitud":-69.1261},{"ciudad":"Zaraza","latitud":9.3394,"longitud":-65.3167}]}]